[
  {
    "type": "node",
    "id": 174834838,
    "tags": {
      "amenity": "parking",
      "created_by": "Potlatch 0.5d",
      "source": "knowledge"
    },
    "region_key": "NZ_WELLINGTON",
    "region_name": "Wellington",
    "region_center": {
      "lat": -41.2865,
      "lng": 174.7762
    },
    "lat": -41.2243592,
    "lon": 174.920609
  },
  {
    "type": "node",
    "id": 266942987,
    "tags": {
      "amenity": "parking",
      "brand": "Wilson Parking",
      "brand:wikidata": "Q28448427",
      "brand:wikipedia": "en:Wilson Parking",
      "fee": "yes",
      "name": "Gilmer Terrace Carpark",
      "operator": "Wilson Parking",
      "operator:type": "private",
      "operator:wikidata": "Q28448427",
      "operator:wikipedia": "en:Wilson Parking"
    },
    "region_key": "NZ_WELLINGTON",
    "region_name": "Wellington",
    "region_center": {
      "lat": -41.2865,
      "lng": 174.7762
    },
    "lat": -41.2855431,
    "lon": 174.774304
  },
  {
    "type": "node",
    "id": 267031664,
    "tags": {
      "access": "yes",
      "amenity": "parking",
      "brand": "Wilson Parking",
      "brand:wikidata": "Q28448427",
      "brand:wikipedia": "en:Wilson Parking",
      "capacity": "350",
      "fee": "yes",
      "maxheight": "1.95",
      "name": "The Willis Street Carpark",
      "opening_hours": "24/7",
      "operator": "Wilson Parking",
      "operator:type": "private",
      "operator:wikidata": "Q28448427",
      "operator:wikipedia": "en:Wilson Parking",
      "parking": "multi-storey",
      "phone": "+64 4 473 2293",
      "surface": "concrete",
      "website": "https://www.wilsonparking.co.nz/park/71_Lower-Willis_151-Willis-Street-Wellington-New-Zealand"
    },
    "region_key": "NZ_WELLINGTON",
    "region_name": "Wellington",
    "region_center": {
      "lat": -41.2865,
      "lng": 174.7762
    },
    "lat": -41.2904949,
    "lon": 174.7740838
  },
  {
    "type": "node",
    "id": 267078159,
    "tags": {
      "access": "yes",
      "amenity": "parking",
      "created_by": "Potlatch 0.9b",
      "fee": "yes",
      "parking": "multi-storey"
    },
    "region_key": "NZ_WELLINGTON",
    "region_name": "Wellington",
    "region_center": {
      "lat": -41.2865,
      "lng": 174.7762
    },
    "lat": -41.2922309,
    "lon": 174.7811653
  },
  {
    "type": "node",
    "id": 267313894,
    "tags": {
      "access": "no",
      "amenity": "parking",
      "name": "Marion Street Car Park",
      "parking": "multi-storey"
    },
    "region_key": "NZ_WELLINGTON",
    "region_name": "Wellington",
    "region_center": {
      "lat": -41.2865,
      "lng": 174.7762
    },
    "lat": -41.2944994,
    "lon": 174.7759886
  },
  {
    "type": "node",
    "id": 268390021,
    "tags": {
      "access": "yes",
      "amenity": "parking",
      "fee": "yes",
      "name": "Leftbank Carpark",
      "opening_hours": "05:30-24:00",
      "operator": "Tournament Parking",
      "parking": "multi-storey"
    },
    "region_key": "NZ_WELLINGTON",
    "region_name": "Wellington",
    "region_center": {
      "lat": -41.2865,
      "lng": 174.7762
    },
    "lat": -41.2927022,
    "lon": 174.7746262
  },
  {
    "type": "node",
    "id": 279426360,
    "tags": {
      "amenity": "parking",
      "brand": "Wilson Parking",
      "brand:wikidata": "Q28448427",
      "brand:wikipedia": "en:Wilson Parking",
      "fee": "yes",
      "name": "Wilson Parking",
      "operator": "Wilson Parking",
      "operator:type": "private",
      "operator:wikidata": "Q28448427",
      "operator:wikipedia": "en:Wilson Parking"
    },
    "region_key": "NZ_WELLINGTON",
    "region_name": "Wellington",
    "region_center": {
      "lat": -41.2865,
      "lng": 174.7762
    },
    "lat": -41.2808913,
    "lon": 174.7775565
  },
  {
    "type": "node",
    "id": 288642063,
    "tags": {
      "amenity": "parking"
    },
    "region_key": "NZ_WELLINGTON",
    "region_name": "Wellington",
    "region_center": {
      "lat": -41.2865,
      "lng": 174.7762
    },
    "lat": -41.3058947,
    "lon": 174.7921803
  },
  {
    "type": "node",
    "id": 290613030,
    "tags": {
      "amenity": "parking",
      "created_by": "Potlatch 0.10b"
    },
    "region_key": "NZ_WELLINGTON",
    "region_name": "Wellington",
    "region_center": {
      "lat": -41.2865,
      "lng": 174.7762
    },
    "lat": -41.4137524,
    "lon": 174.8904155
  },
  {
    "type": "node",
    "id": 291712312,
    "tags": {
      "amenity": "parking"
    },
    "region_key": "NZ_WELLINGTON",
    "region_name": "Wellington",
    "region_center": {
      "lat": -41.2865,
      "lng": 174.7762
    },
    "lat": -41.3096307,
    "lon": 174.7876387
  },
  {
    "type": "node",
    "id": 292202974,
    "tags": {
      "amenity": "parking",
      "created_by": "Potlatch 0.10b",
      "parking": "lane"
    },
    "region_key": "NZ_WELLINGTON",
    "region_name": "Wellington",
    "region_center": {
      "lat": -41.2865,
      "lng": 174.7762
    },
    "lat": -41.3194786,
    "lon": 174.7830944
  },
  {
    "type": "node",
    "id": 293006575,
    "tags": {
      "access": "yes",
      "amenity": "parking",
      "created_by": "Potlatch 0.10b",
      "fee": "no",
      "parking": "surface"
    },
    "region_key": "NZ_WELLINGTON",
    "region_name": "Wellington",
    "region_center": {
      "lat": -41.2865,
      "lng": 174.7762
    },
    "lat": -41.3237938,
    "lon": 174.7811374
  },
  {
    "type": "node",
    "id": 316012020,
    "tags": {
      "bus": "yes",
      "highway": "bus_stop",
      "name": "Major Drive at Viscount Grove (opposite 25)",
      "network": "Metlink",
      "network:wikidata": "Q7258026",
      "public_transport": "platform",
      "ref": "8211"
    },
    "region_key": "NZ_WELLINGTON",
    "region_name": "Wellington",
    "region_center": {
      "lat": -41.2865,
      "lng": 174.7762
    },
    "lat": -41.1869104,
    "lon": 174.9290381
  },
  {
    "type": "node",
    "id": 316012021,
    "tags": {
      "bus": "yes",
      "highway": "bus_stop",
      "name": "Major Drive at Viscount Grove (near 27)",
      "network": "Metlink",
      "network:wikidata": "Q7258026",
      "public_transport": "platform",
      "ref": "9211"
    },
    "region_key": "NZ_WELLINGTON",
    "region_name": "Wellington",
    "region_center": {
      "lat": -41.2865,
      "lng": 174.7762
    },
    "lat": -41.1868243,
    "lon": 174.9287971
  },
  {
    "type": "node",
    "id": 316113347,
    "tags": {
      "bus": "yes",
      "highway": "bus_stop",
      "name": "Major Drive at Taieri Crescent (near 81)",
      "network": "Metlink",
      "network:wikidata": "Q7258026",
      "public_transport": "platform",
      "ref": "9213"
    },
    "region_key": "NZ_WELLINGTON",
    "region_name": "Wellington",
    "region_center": {
      "lat": -41.2865,
      "lng": 174.7762
    },
    "lat": -41.1831052,
    "lon": 174.9303571
  },
  {
    "type": "node",
    "id": 316113727,
    "tags": {
      "bus": "yes",
      "highway": "bus_stop",
      "name": "Major Drive (near 123)",
      "network": "Metlink",
      "network:wikidata": "Q7258026",
      "public_transport": "platform",
      "ref": "9214"
    },
    "region_key": "NZ_WELLINGTON",
    "region_name": "Wellington",
    "region_center": {
      "lat": -41.2865,
      "lng": 174.7762
    },
    "lat": -41.1802904,
    "lon": 174.931705
  },
  {
    "type": "node",
    "id": 316113756,
    "tags": {
      "bus": "yes",
      "highway": "bus_stop",
      "name": "Major Drive at Kelson School",
      "network": "Metlink",
      "network:wikidata": "Q7258026",
      "public_transport": "platform",
      "ref": "8214"
    },
    "region_key": "NZ_WELLINGTON",
    "region_name": "Wellington",
    "region_center": {
      "lat": -41.2865,
      "lng": 174.7762
    },
    "lat": -41.1805604,
    "lon": 174.931713
  },
  {
    "type": "node",
    "id": 316113931,
    "tags": {
      "bus": "yes",
      "highway": "bus_stop",
      "name": "Major Drive at Taieri Crescent (near 84)",
      "network": "Metlink",
      "network:wikidata": "Q7258026",
      "public_transport": "platform",
      "ref": "8213"
    },
    "region_key": "NZ_WELLINGTON",
    "region_name": "Wellington",
    "region_center": {
      "lat": -41.2865,
      "lng": 174.7762
    },
    "lat": -41.1831012,
    "lon": 174.9305954
  },
  {
    "type": "node",
    "id": 317365760,
    "tags": {
      "amenity": "parking",
      "created_by": "Potlatch 0.10f"
    },
    "region_key": "NZ_WELLINGTON",
    "region_name": "Wellington",
    "region_center": {
      "lat": -41.2865,
      "lng": 174.7762
    },
    "lat": -41.1632098,
    "lon": 174.9425316
  },
  {
    "type": "node",
    "id": 317704343,
    "tags": {
      "bus": "yes",
      "highway": "bus_stop",
      "name": "Major Drive opposite Speedys Reserve",
      "network": "Metlink",
      "network:wikidata": "Q7258026",
      "public_transport": "platform",
      "ref": "8210"
    },
    "region_key": "NZ_WELLINGTON",
    "region_name": "Wellington",
    "region_center": {
      "lat": -41.2865,
      "lng": 174.7762
    },
    "lat": -41.1898953,
    "lon": 174.928291
  },
  {
    "type": "node",
    "id": 317896538,
    "tags": {
      "bus": "yes",
      "highway": "bus_stop",
      "name": "Major Drive at Ilam Grove (near 194)",
      "network": "Metlink",
      "network:wikidata": "Q7258026",
      "public_transport": "platform",
      "ref": "8216"
    },
    "region_key": "NZ_WELLINGTON",
    "region_name": "Wellington",
    "region_center": {
      "lat": -41.2865,
      "lng": 174.7762
    },
    "lat": -41.176161,
    "lon": 174.936233
  },
  {
    "type": "node",
    "id": 319395405,
    "tags": {
      "bus": "yes",
      "highway": "bus_stop",
      "name": "Major Drive at Becks Close (near 216)",
      "network": "Metlink",
      "network:wikidata": "Q7258026",
      "public_transport": "platform",
      "ref": "8217"
    },
    "region_key": "NZ_WELLINGTON",
    "region_name": "Wellington",
    "region_center": {
      "lat": -41.2865,
      "lng": 174.7762
    },
    "lat": -41.1743464,
    "lon": 174.937014
  },
  {
    "type": "node",
    "id": 319593359,
    "tags": {
      "bus": "yes",
      "highway": "bus_stop",
      "name": "Major Drive at Becks Close (near 207)",
      "network": "Metlink",
      "network:wikidata": "Q7258026",
      "public_transport": "platform",
      "ref": "9217"
    },
    "region_key": "NZ_WELLINGTON",
    "region_name": "Wellington",
    "region_center": {
      "lat": -41.2865,
      "lng": 174.7762
    },
    "lat": -41.1744405,
    "lon": 174.9367783
  },
  {
    "type": "node",
    "id": 319727285,
    "tags": {
      "bus": "yes",
      "highway": "bus_stop",
      "name": "Harrison Crescent (near 22)",
      "network": "Metlink",
      "network:wikidata": "Q7258026",
      "public_transport": "platform",
      "ref": "8206"
    },
    "region_key": "NZ_WELLINGTON",
    "region_name": "Wellington",
    "region_center": {
      "lat": -41.2865,
      "lng": 174.7762
    },
    "lat": -41.1993999,
    "lon": 174.9415689
  },
  {
    "type": "node",
    "id": 319727339,
    "tags": {
      "bus": "yes",
      "highway": "bus_stop",
      "name": "Harrison Crescent (near 21)",
      "network": "Metlink",
      "network:wikidata": "Q7258026",
      "public_transport": "platform",
      "ref": "9206"
    },
    "region_key": "NZ_WELLINGTON",
    "region_name": "Wellington",
    "region_center": {
      "lat": -41.2865,
      "lng": 174.7762
    },
    "lat": -41.19958,
    "lon": 174.9415742
  },
  {
    "type": "node",
    "id": 320097608,
    "tags": {
      "amenity": "parking",
      "parking": "surface"
    },
    "region_key": "NZ_WELLINGTON",
    "region_name": "Wellington",
    "region_center": {
      "lat": -41.2865,
      "lng": 174.7762
    },
    "lat": -41.2024242,
    "lon": 174.9086489
  },
  {
    "type": "node",
    "id": 331135054,
    "tags": {
      "access": "yes",
      "amenity": "parking",
      "created_by": "Potlatch 0.10f",
      "fee": "no",
      "parking": "street_side",
      "wheelchair": "yes"
    },
    "region_key": "NZ_WELLINGTON",
    "region_name": "Wellington",
    "region_center": {
      "lat": -41.2865,
      "lng": 174.7762
    },
    "lat": -41.2806347,
    "lon": 174.9074444
  },
  {
    "type": "node",
    "id": 331139676,
    "tags": {
      "access": "yes",
      "amenity": "parking",
      "fee": "no",
      "parking": "street_side"
    },
    "region_key": "NZ_WELLINGTON",
    "region_name": "Wellington",
    "region_center": {
      "lat": -41.2865,
      "lng": 174.7762
    },
    "lat": -41.311317,
    "lon": 174.8835002
  },
  {
    "type": "node",
    "id": 331142749,
    "tags": {
      "amenity": "parking"
    },
    "region_key": "NZ_WELLINGTON",
    "region_name": "Wellington",
    "region_center": {
      "lat": -41.2865,
      "lng": 174.7762
    },
    "lat": -41.2382715,
    "lon": 174.9011417
  },
  {
    "type": "node",
    "id": 331374039,
    "tags": {
      "amenity": "parking",
      "parking": "lane"
    },
    "region_key": "NZ_WELLINGTON",
    "region_name": "Wellington",
    "region_center": {
      "lat": -41.2865,
      "lng": 174.7762
    },
    "lat": -41.2214137,
    "lon": 174.9100491
  },
  {
    "type": "node",
    "id": 331385403,
    "tags": {
      "access": "customers",
      "amenity": "parking",
      "fee": "no",
      "parking": "surface"
    },
    "region_key": "NZ_WELLINGTON",
    "region_name": "Wellington",
    "region_center": {
      "lat": -41.2865,
      "lng": 174.7762
    },
    "lat": -41.2107353,
    "lon": 174.9064551
  },
  {
    "type": "node",
    "id": 332110177,
    "tags": {
      "bus": "yes",
      "highway": "bus_stop",
      "name": "Upper Hutt College - Moonshine Road",
      "public_transport": "platform",
      "ref": "9548"
    },
    "region_key": "NZ_WELLINGTON",
    "region_name": "Wellington",
    "region_center": {
      "lat": -41.2865,
      "lng": 174.7762
    },
    "lat": -41.1269162,
    "lon": 175.041517
  },
  {
    "type": "node",
    "id": 344366608,
    "tags": {
      "bus": "yes",
      "highway": "bus_stop",
      "name": "Fairfield Shops - Waiwhetu Road (near 300)",
      "network": "Metlink",
      "network:wikidata": "Q7258026",
      "public_transport": "platform",
      "ref": "8168",
      "shelter": "yes",
      "tactile_paving": "no"
    },
    "region_key": "NZ_WELLINGTON",
    "region_name": "Wellington",
    "region_center": {
      "lat": -41.2865,
      "lng": 174.7762
    },
    "lat": -41.2111366,
    "lon": 174.9336332
  },
  {
    "type": "node",
    "id": 345046239,
    "tags": {
      "bus": "yes",
      "highway": "bus_stop",
      "name": "Fairfield Shops - Waiwhetu Road (near 197)",
      "network": "Metlink",
      "network:wikidata": "Q7258026",
      "public_transport": "platform",
      "ref": "9268",
      "shelter": "no"
    },
    "region_key": "NZ_WELLINGTON",
    "region_name": "Wellington",
    "region_center": {
      "lat": -41.2865,
      "lng": 174.7762
    },
    "lat": -41.2118082,
    "lon": 174.9321551
  },
  {
    "type": "node",
    "id": 422252189,
    "tags": {
      "amenity": "parking"
    },
    "region_key": "NZ_WELLINGTON",
    "region_name": "Wellington",
    "region_center": {
      "lat": -41.2865,
      "lng": 174.7762
    },
    "lat": -41.0946546,
    "lon": 175.0920785
  },
  {
    "type": "node",
    "id": 448053566,
    "tags": {
      "amenity": "ferry_terminal",
      "ferry": "yes",
      "internet_access": "no",
      "name": "Days Bay Wharf",
      "network": "Metlink",
      "network:wikidata": "Q7258026",
      "operator": "East by West Ferries",
      "public_transport": "stop_position",
      "ref": "9999"
    },
    "region_key": "NZ_WELLINGTON",
    "region_name": "Wellington",
    "region_center": {
      "lat": -41.2865,
      "lng": 174.7762
    },
    "lat": -41.2805769,
    "lon": 174.9054148
  },
  {
    "type": "node",
    "id": 457735899,
    "tags": {
      "bus": "yes",
      "highway": "bus_stop",
      "name": "Newlands Road at Pukehuia Park",
      "network": "Metlink",
      "network:wikidata": "Q7258026",
      "public_transport": "platform",
      "ref": "3540"
    },
    "region_key": "NZ_WELLINGTON",
    "region_name": "Wellington",
    "region_center": {
      "lat": -41.2865,
      "lng": 174.7762
    },
    "lat": -41.2238103,
    "lon": 174.8229925
  },
  {
    "type": "node",
    "id": 457735901,
    "tags": {
      "bus": "yes",
      "highway": "bus_stop",
      "name": "Newlands Bus Depot - Newlands Road",
      "network": "Metlink",
      "network:wikidata": "Q7258026",
      "public_transport": "platform",
      "ref": "3550"
    },
    "region_key": "NZ_WELLINGTON",
    "region_name": "Wellington",
    "region_center": {
      "lat": -41.2865,
      "lng": 174.7762
    },
    "lat": -41.2315044,
    "lon": 174.8122952
  },
  {
    "type": "node",
    "id": 457871795,
    "tags": {
      "bus": "yes",
      "highway": "bus_stop",
      "name": "Johnsonville",
      "public_transport": "platform"
    },
    "region_key": "NZ_WELLINGTON",
    "region_name": "Wellington",
    "region_center": {
      "lat": -41.2865,
      "lng": 174.7762
    },
    "lat": -41.2234975,
    "lon": 174.8049708
  },
  {
    "type": "node",
    "id": 469076694,
    "tags": {
      "bench": "yes",
      "bin": "no",
      "bus": "yes",
      "highway": "bus_stop",
      "lit": "no",
      "name": "Jackson Street at Te Puni Street (westbound)",
      "old_name": "Jackson Street at Kathmandu",
      "public_transport": "platform",
      "ref": "8002",
      "shelter": "yes",
      "surface": "asphalt"
    },
    "region_key": "NZ_WELLINGTON",
    "region_name": "Wellington",
    "region_center": {
      "lat": -41.2865,
      "lng": 174.7762
    },
    "lat": -41.2227625,
    "lon": 174.8698003
  },
  {
    "type": "node",
    "id": 470899467,
    "tags": {
      "bus": "yes",
      "highway": "bus_stop",
      "name": "Kanpur Road (near 42)",
      "network": "Metlink",
      "network:wikidata": "Q7258026",
      "public_transport": "platform",
      "ref": "3821"
    },
    "region_key": "NZ_WELLINGTON",
    "region_name": "Wellington",
    "region_center": {
      "lat": -41.2865,
      "lng": 174.7762
    },
    "lat": -41.2375126,
    "lon": 174.793013
  },
  {
    "type": "node",
    "id": 495939974,
    "tags": {
      "access": "customers",
      "amenity": "parking",
      "fee": "no",
      "parking": "surface",
      "surface": "grass"
    },
    "region_key": "NZ_WELLINGTON",
    "region_name": "Wellington",
    "region_center": {
      "lat": -41.2865,
      "lng": 174.7762
    },
    "lat": -41.0595709,
    "lon": 174.9377591
  },
  {
    "type": "node",
    "id": 506091724,
    "tags": {
      "bench": "yes",
      "bin": "no",
      "bus": "yes",
      "highway": "bus_stop",
      "lit": "yes",
      "name": "Ngaio Gorge Road (near 17)",
      "network": "Metlink",
      "network:wikidata": "Q7258026",
      "public_transport": "platform",
      "ref": "4406",
      "shelter": "yes",
      "tactile_paving": "no"
    },
    "region_key": "NZ_WELLINGTON",
    "region_name": "Wellington",
    "region_center": {
      "lat": -41.2865,
      "lng": 174.7762
    },
    "lat": -41.2561607,
    "lon": 174.7731629
  },
  {
    "type": "node",
    "id": 506091728,
    "tags": {
      "bus": "yes",
      "highway": "bus_stop",
      "public_transport": "platform"
    },
    "region_key": "NZ_WELLINGTON",
    "region_name": "Wellington",
    "region_center": {
      "lat": -41.2865,
      "lng": 174.7762
    },
    "lat": -41.2372176,
    "lon": 174.7966741
  },
  {
    "type": "node",
    "id": 506091729,
    "tags": {
      "bus": "yes",
      "highway": "bus_stop",
      "name": "Rajkot Terrace (near 4)",
      "network": "Metlink",
      "network:wikidata": "Q7258026",
      "public_transport": "platform",
      "ref": "3813"
    },
    "region_key": "NZ_WELLINGTON",
    "region_name": "Wellington",
    "region_center": {
      "lat": -41.2865,
      "lng": 174.7762
    },
    "lat": -41.2364588,
    "lon": 174.7974243
  },
  {
    "type": "node",
    "id": 506091731,
    "tags": {
      "bench": "no",
      "bus": "yes",
      "highway": "bus_stop",
      "name": "Ottawa Road (near 54)",
      "network": "Metlink",
      "network:wikidata": "Q7258026",
      "public_transport": "platform",
      "ref": "4450",
      "shelter": "no"
    },
    "region_key": "NZ_WELLINGTON",
    "region_name": "Wellington",
    "region_center": {
      "lat": -41.2865,
      "lng": 174.7762
    },
    "lat": -41.2483919,
    "lon": 174.7746236
  },
  {
    "type": "node",
    "id": 542893061,
    "tags": {
      "amenity": "parking"
    },
    "region_key": "NZ_WELLINGTON",
    "region_name": "Wellington",
    "region_center": {
      "lat": -41.2865,
      "lng": 174.7762
    },
    "lat": -41.1822865,
    "lon": 174.9489329
  },
  {
    "type": "node",
    "id": 542894135,
    "tags": {
      "amenity": "parking"
    },
    "region_key": "NZ_WELLINGTON",
    "region_name": "Wellington",
    "region_center": {
      "lat": -41.2865,
      "lng": 174.7762
    },
    "lat": -41.1810044,
    "lon": 174.8220667
  },
  {
    "type": "node",
    "id": 542903430,
    "tags": {
      "amenity": "parking"
    },
    "region_key": "NZ_WELLINGTON",
    "region_name": "Wellington",
    "region_center": {
      "lat": -41.2865,
      "lng": 174.7762
    },
    "lat": -41.1865453,
    "lon": 174.8367318
  },
  {
    "type": "node",
    "id": 542911738,
    "tags": {
      "bus": "yes",
      "highway": "bus_stop",
      "name": "Guadeloupe Crescent at Mandeville Crescent",
      "network": "Metlink",
      "network:wikidata": "Q7258026",
      "public_transport": "platform",
      "ref": "3430"
    },
    "region_key": "NZ_WELLINGTON",
    "region_name": "Wellington",
    "region_center": {
      "lat": -41.2865,
      "lng": 174.7762
    },
    "lat": -41.2092003,
    "lon": 174.8213927
  },
  {
    "type": "node",
    "id": 613944996,
    "tags": {
      "bus": "yes",
      "highway": "bus_stop",
      "local_ref": "C",
      "name": "Kingston - Stop C",
      "network": "Metlink",
      "network:wikidata": "Q7258026",
      "public_transport": "platform",
      "ref": "7730",
      "shelter": "yes"
    },
    "region_key": "NZ_WELLINGTON",
    "region_name": "Wellington",
    "region_center": {
      "lat": -41.2865,
      "lng": 174.7762
    },
    "lat": -41.3236244,
    "lon": 174.7634913
  },
  {
    "type": "node",
    "id": 619733420,
    "tags": {
      "bench": "yes",
      "bin": "no",
      "bus": "yes",
      "highway": "bus_stop",
      "lit": "no",
      "name": "Molesworth Street - Motorway",
      "network": "Metlink",
      "network:wikidata": "Q7258026",
      "public_transport": "platform",
      "ref": "5114",
      "shelter": "yes",
      "tactile_paving": "no"
    },
    "region_key": "NZ_WELLINGTON",
    "region_name": "Wellington",
    "region_center": {
      "lat": -41.2865,
      "lng": 174.7762
    },
    "lat": -41.272614,
    "lon": 174.7778836
  },
  {
    "type": "node",
    "id": 619733421,
    "tags": {
      "bench": "yes",
      "bin": "yes",
      "bus": "yes",
      "highway": "bus_stop",
      "lit": "yes",
      "name": "Murphy Street - Motorway",
      "network": "Metlink",
      "network:wikidata": "Q7258026",
      "public_transport": "platform",
      "ref": "4114",
      "shelter": "yes",
      "tactile_paving": "no"
    },
    "region_key": "NZ_WELLINGTON",
    "region_name": "Wellington",
    "region_center": {
      "lat": -41.2865,
      "lng": 174.7762
    },
    "lat": -41.2723725,
    "lon": 174.777997
  },
  {
    "type": "node",
    "id": 622303820,
    "tags": {
      "amenity": "parking",
      "parking": "street_side"
    },
    "region_key": "NZ_WELLINGTON",
    "region_name": "Wellington",
    "region_center": {
      "lat": -41.2865,
      "lng": 174.7762
    },
    "lat": -41.0872301,
    "lon": 175.1499839
  },
  {
    "type": "node",
    "id": 622309742,
    "tags": {
      "amenity": "parking"
    },
    "region_key": "NZ_WELLINGTON",
    "region_name": "Wellington",
    "region_center": {
      "lat": -41.2865,
      "lng": 174.7762
    },
    "lat": -41.115029,
    "lon": 175.311327
  },
  {
    "type": "node",
    "id": 673871827,
    "tags": {
      "bench": "no",
      "bin": "no",
      "bus": "yes",
      "highway": "bus_stop",
      "lit": "yes",
      "name": "James Cook Drive at Discovery Drive",
      "public_transport": "platform",
      "ref": "2728",
      "shelter": "no",
      "tactile_paving": "no"
    },
    "region_key": "NZ_WELLINGTON",
    "region_name": "Wellington",
    "region_center": {
      "lat": -41.2865,
      "lng": 174.7762
    },
    "lat": -41.11583,
    "lon": 174.9016258
  },
  {
    "type": "node",
    "id": 673871913,
    "tags": {
      "bench": "no",
      "bin": "no",
      "bus": "yes",
      "highway": "bus_stop",
      "lit": "yes",
      "name": "James Cook Drive at Discovery Drive (Park)",
      "public_transport": "platform",
      "ref": "2754",
      "shelter": "no",
      "tactile_paving": "no"
    },
    "region_key": "NZ_WELLINGTON",
    "region_name": "Wellington",
    "region_center": {
      "lat": -41.2865,
      "lng": 174.7762
    },
    "lat": -41.1158304,
    "lon": 174.9017752
  },
  {
    "type": "node",
    "id": 729613526,
    "tags": {
      "bench": "yes",
      "bin": "yes",
      "bus": "yes",
      "highway": "bus_stop",
      "lit": "yes",
      "local_ref": "A",
      "name": "Wellington Hospital - Stop A",
      "network": "Metlink",
      "network:wikidata": "Q7258026",
      "public_transport": "platform",
      "ref": "6055",
      "shelter": "yes",
      "tactile_paving": "yes"
    },
    "region_key": "NZ_WELLINGTON",
    "region_name": "Wellington",
    "region_center": {
      "lat": -41.2865,
      "lng": 174.7762
    },
    "lat": -41.3086071,
    "lon": 174.7784801
  },
  {
    "type": "node",
    "id": 729613535,
    "tags": {
      "bench": "no",
      "bin": "yes",
      "bus": "yes",
      "highway": "bus_stop",
      "lit": "yes",
      "name": "Riddiford Street at Newtown Shops (opposite 157)",
      "network": "Metlink",
      "network:wikidata": "Q7258026",
      "public_transport": "platform",
      "ref": "7019",
      "shelter": "yes",
      "tactile_paving": "no"
    },
    "region_key": "NZ_WELLINGTON",
    "region_name": "Wellington",
    "region_center": {
      "lat": -41.2865,
      "lng": 174.7762
    },
    "lat": -41.3127428,
    "lon": 174.7794512
  },
  {
    "type": "node",
    "id": 729613536,
    "tags": {
      "bench": "yes",
      "bin": "yes",
      "bus": "yes",
      "highway": "bus_stop",
      "lit": "no",
      "name": "Rintoul Street at Newtown Shops",
      "network": "Metlink",
      "network:wikidata": "Q7258026",
      "public_transport": "platform",
      "ref": "6119",
      "shelter": "yes",
      "tactile_paving": "no"
    },
    "region_key": "NZ_WELLINGTON",
    "region_name": "Wellington",
    "region_center": {
      "lat": -41.2865,
      "lng": 174.7762
    },
    "lat": -41.3123856,
    "lon": 174.7790226
  },
  {
    "type": "node",
    "id": 729613537,
    "tags": {
      "bench": "yes",
      "bin": "yes",
      "bus": "yes",
      "highway": "bus_stop",
      "lit": "yes",
      "name": "Taranaki Street at Courtenay Place",
      "network": "Metlink",
      "network:wikidata": "Q7258026",
      "public_transport": "platform",
      "ref": "6910",
      "shelter": "yes",
      "tactile_paving": "no"
    },
    "region_key": "NZ_WELLINGTON",
    "region_name": "Wellington",
    "region_center": {
      "lat": -41.2865,
      "lng": 174.7762
    },
    "lat": -41.2929918,
    "lon": 174.7787019
  },
  {
    "type": "node",
    "id": 729613539,
    "tags": {
      "access": "no",
      "bench": "yes",
      "bus": "yes",
      "check_date:shelter": "2024-01-15",
      "highway": "bus_stop",
      "name": "Wellington High School",
      "name:signed": "no",
      "network": "Metlink",
      "network:wikidata": "Q7258026",
      "public_transport": "platform",
      "ref": "7919",
      "school_bus": "designated",
      "shelter": "yes",
      "tactile_paving": "no"
    },
    "region_key": "NZ_WELLINGTON",
    "region_name": "Wellington",
    "region_center": {
      "lat": -41.2865,
      "lng": 174.7762
    },
    "lat": -41.3015235,
    "lon": 174.7742164
  },
  {
    "type": "node",
    "id": 729613540,
    "tags": {
      "bench": "no",
      "bus": "yes",
      "highway": "bus_stop",
      "name": "Constable Street at Owen Street (near 77)",
      "network": "Metlink",
      "network:wikidata": "Q7258026",
      "public_transport": "platform",
      "ref": "6021",
      "shelter": "no"
    },
    "region_key": "NZ_WELLINGTON",
    "region_name": "Wellington",
    "region_center": {
      "lat": -41.2865,
      "lng": 174.7762
    },
    "lat": -41.3129542,
    "lon": 174.7840407
  },
  {
    "type": "node",
    "id": 731463985,
    "tags": {
      "bench": "yes",
      "bin": "yes",
      "bus": "yes",
      "highway": "bus_stop",
      "lit": "no",
      "name": "Riddiford Street at Hall Street",
      "network": "Metlink",
      "network:wikidata": "Q7258026",
      "public_transport": "platform",
      "ref": "7018",
      "shelter": "yes",
      "tactile_paving": "no"
    },
    "region_key": "NZ_WELLINGTON",
    "region_name": "Wellington",
    "region_center": {
      "lat": -41.2865,
      "lng": 174.7762
    },
    "lat": -41.3112207,
    "lon": 174.7789868
  },
  {
    "type": "node",
    "id": 731463986,
    "tags": {
      "bench": "no",
      "bin": "yes",
      "bus": "yes",
      "highway": "bus_stop",
      "lit": "no",
      "name": "Riddiford Street at Newtown Shops (near 157)",
      "network": "Metlink",
      "network:wikidata": "Q7258026",
      "public_transport": "platform",
      "ref": "6019",
      "shelter": "yes",
      "tactile_paving": "no"
    },
    "region_key": "NZ_WELLINGTON",
    "region_name": "Wellington",
    "region_center": {
      "lat": -41.2865,
      "lng": 174.7762
    },
    "lat": -41.312805,
    "lon": 174.7796506
  },
  {
    "type": "node",
    "id": 765048745,
    "tags": {
      "bus": "yes",
      "highway": "bus_stop",
      "name": "Ferry Street at Dundas Street",
      "network": "Metlink",
      "network:wikidata": "Q7258026",
      "public_transport": "platform",
      "ref": "6039",
      "shelter": "no"
    },
    "region_key": "NZ_WELLINGTON",
    "region_name": "Wellington",
    "region_center": {
      "lat": -41.2865,
      "lng": 174.7762
    },
    "lat": -41.3225749,
    "lon": 174.8287288
  },
  {
    "type": "node",
    "id": 765048746,
    "tags": {
      "bus": "yes",
      "highway": "bus_stop",
      "name": "Route 11",
      "public_transport": "platform"
    },
    "region_key": "NZ_WELLINGTON",
    "region_name": "Wellington",
    "region_center": {
      "lat": -41.2865,
      "lng": 174.7762
    },
    "lat": -41.3218943,
    "lon": 174.8289927
  },
  {
    "type": "node",
    "id": 775426102,
    "tags": {
      "bench": "yes",
      "bin": "yes",
      "bus": "yes",
      "highway": "bus_stop",
      "lit": "yes",
      "local_ref": "C",
      "name": "Lambton Quay North - Stop C",
      "network": "Metlink",
      "network:wikidata": "Q7258026",
      "public_transport": "platform",
      "ref": "5011",
      "shelter": "yes",
      "tactile_paving": "no"
    },
    "region_key": "NZ_WELLINGTON",
    "region_name": "Wellington",
    "region_center": {
      "lat": -41.2865,
      "lng": 174.7762
    },
    "lat": -41.2800532,
    "lon": 174.775948
  },
  {
    "type": "node",
    "id": 775447154,
    "tags": {
      "access": "customers",
      "amenity": "parking",
      "capacity": "20",
      "fee": "no",
      "parking": "surface"
    },
    "region_key": "NZ_WELLINGTON",
    "region_name": "Wellington",
    "region_center": {
      "lat": -41.2865,
      "lng": 174.7762
    },
    "lat": -41.1483363,
    "lon": 175.0115706
  },
  {
    "type": "node",
    "id": 911556150,
    "tags": {
      "bus": "yes",
      "highway": "bus_stop",
      "name": "Wellington International Airport",
      "network": "Metlink",
      "network:wikidata": "Q7258026",
      "public_transport": "platform",
      "ref": "7399",
      "shelter": "yes"
    },
    "region_key": "NZ_WELLINGTON",
    "region_name": "Wellington",
    "region_center": {
      "lat": -41.2865,
      "lng": 174.7762
    },
    "lat": -41.3284407,
    "lon": 174.8126232
  },
  {
    "type": "node",
    "id": 917957287,
    "tags": {
      "alt_name": "Lower Hutt Interchange",
      "amenity": "bus_station",
      "bus": "yes",
      "name": "Lower Hutt â€“ Queensgate",
      "public_transport": "station",
      "wheelchair": "yes"
    },
    "region_key": "NZ_WELLINGTON",
    "region_name": "Wellington",
    "region_center": {
      "lat": -41.2865,
      "lng": 174.7762
    },
    "lat": -41.2100771,
    "lon": 174.9047603
  },
  {
    "type": "node",
    "id": 986219254,
    "tags": {
      "bench": "yes",
      "bin": "yes",
      "bus": "yes",
      "highway": "bus_stop",
      "lit": "no",
      "name": "Jackson Street at Patrick Street",
      "public_transport": "platform",
      "ref": "8018",
      "shelter": "yes",
      "tactile_paving": "no"
    },
    "region_key": "NZ_WELLINGTON",
    "region_name": "Wellington",
    "region_center": {
      "lat": -41.2865,
      "lng": 174.7762
    },
    "lat": -41.2285476,
    "lon": 174.8887611
  },
  {
    "type": "node",
    "id": 986219255,
    "tags": {
      "bench": "no",
      "bin": "no",
      "bus": "yes",
      "highway": "bus_stop",
      "lit": "no",
      "name": "Jackson Street at Patrick Street (near 389)",
      "network": "Metlink",
      "network:wikidata": "Q7258026",
      "public_transport": "platform",
      "ref": "9018",
      "shelter": "no",
      "tactile_paving": "no"
    },
    "region_key": "NZ_WELLINGTON",
    "region_name": "Wellington",
    "region_center": {
      "lat": -41.2865,
      "lng": 174.7762
    },
    "lat": -41.228291,
    "lon": 174.888333
  },
  {
    "type": "node",
    "id": 1007016887,
    "tags": {
      "bus": "yes",
      "departures_board": "timetable",
      "highway": "bus_stop",
      "name": "Wainuiomata Shopping Centre - Fitzherbert Road",
      "network": "Metlink",
      "network:wikidata": "Q7258026",
      "public_transport": "platform",
      "ref": "8985",
      "shelter": "yes"
    },
    "region_key": "NZ_WELLINGTON",
    "region_name": "Wellington",
    "region_center": {
      "lat": -41.2865,
      "lng": 174.7762
    },
    "lat": -41.2616867,
    "lon": 174.947091
  },
  {
    "type": "node",
    "id": 1007016890,
    "tags": {
      "bus": "yes",
      "highway": "bus_stop",
      "name": "Wainuiomata Shopping Centre opposite Library",
      "network": "Metlink",
      "network:wikidata": "Q7258026",
      "public_transport": "platform",
      "ref": "8905"
    },
    "region_key": "NZ_WELLINGTON",
    "region_name": "Wellington",
    "region_center": {
      "lat": -41.2865,
      "lng": 174.7762
    },
    "lat": -41.2623805,
    "lon": 174.9457018
  },
  {
    "type": "node",
    "id": 1007016896,
    "tags": {
      "bus": "yes",
      "highway": "bus_stop",
      "name": "Wainuiomata Shopping Centre at Library",
      "network": "Metlink",
      "network:wikidata": "Q7258026",
      "public_transport": "platform",
      "ref": "9905"
    },
    "region_key": "NZ_WELLINGTON",
    "region_name": "Wellington",
    "region_center": {
      "lat": -41.2865,
      "lng": 174.7762
    },
    "lat": -41.2620244,
    "lon": 174.9454525
  },
  {
    "type": "node",
    "id": 1007016898,
    "tags": {
      "bus": "yes",
      "highway": "bus_stop",
      "name": "Fitzherbert Road at Shopping Centre",
      "network": "Metlink",
      "network:wikidata": "Q7258026",
      "public_transport": "platform",
      "ref": "9985"
    },
    "region_key": "NZ_WELLINGTON",
    "region_name": "Wellington",
    "region_center": {
      "lat": -41.2865,
      "lng": 174.7762
    },
    "lat": -41.2619041,
    "lon": 174.9472394
  },
  {
    "type": "node",
    "id": 1010237913,
    "tags": {
      "bus": "yes",
      "highway": "bus_stop",
      "name": "Newlands Road at Black Rock Road",
      "network": "Metlink",
      "network:wikidata": "Q7258026",
      "public_transport": "platform",
      "ref": "3604"
    },
    "region_key": "NZ_WELLINGTON",
    "region_name": "Wellington",
    "region_center": {
      "lat": -41.2865,
      "lng": 174.7762
    },
    "lat": -41.2284274,
    "lon": 174.8185409
  },
  {
    "type": "node",
    "id": 1010237915,
    "tags": {
      "bench": "no",
      "bin": "no",
      "bus": "yes",
      "highway": "bus_stop",
      "lit": "yes",
      "name": "Muritai Road at Houhere Terrace (near 107)",
      "network": "Metlink",
      "network:wikidata": "Q7258026",
      "public_transport": "platform",
      "ref": "9848",
      "shelter": "no",
      "tactile_paving": "no"
    },
    "region_key": "NZ_WELLINGTON",
    "region_name": "Wellington",
    "region_center": {
      "lat": -41.2865,
      "lng": 174.7762
    },
    "lat": -41.2888079,
    "lon": 174.9003917
  },
  {
    "type": "node",
    "id": 1010237919,
    "tags": {
      "bus": "yes",
      "highway": "bus_stop",
      "name": "Ayton Drive (near 69)",
      "public_transport": "platform",
      "ref": "2546"
    },
    "region_key": "NZ_WELLINGTON",
    "region_name": "Wellington",
    "region_center": {
      "lat": -41.2865,
      "lng": 174.7762
    },
    "lat": -41.1100891,
    "lon": 174.8948769
  },
  {
    "type": "node",
    "id": 1010237922,
    "tags": {
      "bus": "yes",
      "highway": "bus_stop",
      "name": "High Street opposite 1401",
      "network": "Metlink",
      "network:wikidata": "Q7258026",
      "public_transport": "platform",
      "ref": "9257"
    },
    "region_key": "NZ_WELLINGTON",
    "region_name": "Wellington",
    "region_center": {
      "lat": -41.2865,
      "lng": 174.7762
    },
    "lat": -41.1665025,
    "lon": 174.9693231
  },
  {
    "type": "node",
    "id": 1010237931,
    "tags": {
      "bench": "yes",
      "bin": "yes",
      "bus": "yes",
      "highway": "bus_stop",
      "lit": "no",
      "name": "The Parade at Humber Street (near 300)",
      "network": "Metlink",
      "network:wikidata": "Q7258026",
      "public_transport": "platform",
      "ref": "7134",
      "shelter": "yes",
      "tactile_paving": "yes"
    },
    "region_key": "NZ_WELLINGTON",
    "region_name": "Wellington",
    "region_center": {
      "lat": -41.2865,
      "lng": 174.7762
    },
    "lat": -41.3407356,
    "lon": 174.7711581
  },
  {
    "type": "node",
    "id": 1010237933,
    "tags": {
      "bus": "yes",
      "highway": "bus_stop",
      "name": "Wainuiomata Road at The Strand (near 61)",
      "network": "Metlink",
      "network:wikidata": "Q7258026",
      "public_transport": "platform",
      "ref": "8904"
    },
    "region_key": "NZ_WELLINGTON",
    "region_name": "Wellington",
    "region_center": {
      "lat": -41.2865,
      "lng": 174.7762
    },
    "lat": -41.2607526,
    "lon": 174.9407594
  },
  {
    "type": "node",
    "id": 1010237934,
    "tags": {
      "bus": "yes",
      "highway": "bus_stop",
      "name": "Muritai Road at Konini Street (near 332)",
      "network": "Metlink",
      "network:wikidata": "Q7258026",
      "public_transport": "platform",
      "ref": "8854"
    },
    "region_key": "NZ_WELLINGTON",
    "region_name": "Wellington",
    "region_center": {
      "lat": -41.2865,
      "lng": 174.7762
    },
    "lat": -41.2998957,
    "lon": 174.8943834
  },
  {
    "type": "node",
    "id": 1010237936,
    "tags": {
      "bench": "yes",
      "bin": "no",
      "bus": "yes",
      "highway": "bus_stop",
      "lit": "yes",
      "name": "Fergusson Drive at Golders Road (near 699)",
      "public_transport": "platform",
      "ref": "9573",
      "shelter": "no",
      "tactile_paving": "no"
    },
    "region_key": "NZ_WELLINGTON",
    "region_name": "Wellington",
    "region_center": {
      "lat": -41.2865,
      "lng": 174.7762
    },
    "lat": -41.1258665,
    "lon": 175.0556761
  },
  {
    "type": "node",
    "id": 1010237937,
    "tags": {
      "bus": "yes",
      "highway": "bus_stop",
      "name": "Hewer Crescent at Sladden Street (near 116)",
      "network": "Metlink",
      "network:wikidata": "Q7258026",
      "public_transport": "platform",
      "ref": "8287"
    },
    "region_key": "NZ_WELLINGTON",
    "region_name": "Wellington",
    "region_center": {
      "lat": -41.2865,
      "lng": 174.7762
    },
    "lat": -41.1941588,
    "lon": 174.9532192
  },
  {
    "type": "node",
    "id": 1010237947,
    "tags": {
      "bus": "yes",
      "highway": "bus_stop",
      "name": "Ferry Street at Ludlam Street",
      "network": "Metlink",
      "network:wikidata": "Q7258026",
      "public_transport": "platform",
      "ref": "7039",
      "shelter": "no"
    },
    "region_key": "NZ_WELLINGTON",
    "region_name": "Wellington",
    "region_center": {
      "lat": -41.2865,
      "lng": 174.7762
    },
    "lat": -41.3226594,
    "lon": 174.8289476
  },
  {
    "type": "node",
    "id": 1010237950,
    "tags": {
      "bus": "yes",
      "highway": "bus_stop",
      "name": "Broderick Road (near 102)",
      "network": "Metlink",
      "network:wikidata": "Q7258026",
      "public_transport": "platform",
      "ref": "3058"
    },
    "region_key": "NZ_WELLINGTON",
    "region_name": "Wellington",
    "region_center": {
      "lat": -41.2865,
      "lng": 174.7762
    },
    "lat": -41.2240762,
    "lon": 174.7975875
  },
  {
    "type": "node",
    "id": 1010237953,
    "tags": {
      "bench": "yes",
      "bin": "no",
      "bus": "yes",
      "highway": "bus_stop",
      "lit": "yes",
      "name": "Chaytor Street opposite Curtis Street",
      "network": "Metlink",
      "network:wikidata": "Q7258026",
      "public_transport": "platform",
      "ref": "5321",
      "shelter": "yes",
      "tactile_paving": "no"
    },
    "region_key": "NZ_WELLINGTON",
    "region_name": "Wellington",
    "region_center": {
      "lat": -41.2865,
      "lng": 174.7762
    },
    "lat": -41.2845608,
    "lon": 174.7529258
  },
  {
    "type": "node",
    "id": 1010237956,
    "tags": {
      "bench": "no",
      "bin": "no",
      "highway": "bus_stop",
      "name": "Tireti Road (near 45)",
      "public_transport": "platform",
      "ref": "2914",
      "shelter": "no",
      "tactile_paving": "no"
    },
    "region_key": "NZ_WELLINGTON",
    "region_name": "Wellington",
    "region_center": {
      "lat": -41.2865,
      "lng": 174.7762
    },
    "lat": -41.1089646,
    "lon": 174.8342196
  },
  {
    "type": "node",
    "id": 1010237959,
    "tags": {
      "bus": "yes",
      "highway": "bus_stop",
      "name": "Kenepuru Drive at Ambulance Drive",
      "public_transport": "platform",
      "ref": "3932"
    },
    "region_key": "NZ_WELLINGTON",
    "region_name": "Wellington",
    "region_center": {
      "lat": -41.2865,
      "lng": 174.7762
    },
    "lat": -41.1484665,
    "lon": 174.837903
  },
  {
    "type": "node",
    "id": 1010237963,
    "tags": {
      "bus": "yes",
      "highway": "bus_stop",
      "name": "Breaker Bay Road at Reef Bay",
      "network": "Metlink",
      "network:wikidata": "Q7258026",
      "public_transport": "platform",
      "ref": "6050"
    },
    "region_key": "NZ_WELLINGTON",
    "region_name": "Wellington",
    "region_center": {
      "lat": -41.2865,
      "lng": 174.7762
    },
    "lat": -41.3397586,
    "lon": 174.8243096
  },
  {
    "type": "node",
    "id": 1010237967,
    "tags": {
      "bench": "no",
      "bin": "no",
      "bus": "yes",
      "highway": "bus_stop",
      "lit": "no",
      "name": "Everest Street at Izard Road",
      "network": "Metlink",
      "network:wikidata": "Q7258026",
      "public_transport": "platform",
      "ref": "5421",
      "shelter": "no",
      "tactile_paving": "no"
    },
    "region_key": "NZ_WELLINGTON",
    "region_name": "Wellington",
    "region_center": {
      "lat": -41.2865,
      "lng": 174.7762
    },
    "lat": -41.2474454,
    "lon": 174.7950057
  },
  {
    "type": "node",
    "id": 1010237969,
    "tags": {
      "bus": "yes",
      "highway": "bus_stop",
      "name": "Hazlewood Avenue (near 23)",
      "network": "Metlink",
      "network:wikidata": "Q7258026",
      "public_transport": "platform",
      "ref": "5367"
    },
    "region_key": "NZ_WELLINGTON",
    "region_name": "Wellington",
    "region_center": {
      "lat": -41.2865,
      "lng": 174.7762
    },
    "lat": -41.2942887,
    "lon": 174.7240736
  },
  {
    "type": "node",
    "id": 1010237973,
    "tags": {
      "bench": "yes",
      "bin": "yes",
      "bus": "yes",
      "highway": "bus_stop",
      "lit": "no",
      "name": "Wilson Street at Criterion Lane",
      "network": "Metlink",
      "network:wikidata": "Q7258026",
      "public_transport": "platform",
      "ref": "8576",
      "shelter": "yes",
      "tactile_paving": "no"
    },
    "region_key": "NZ_WELLINGTON",
    "region_name": "Wellington",
    "region_center": {
      "lat": -41.2865,
      "lng": 174.7762
    },
    "lat": -41.1252862,
    "lon": 175.0680754
  },
  {
    "type": "node",
    "id": 1010237976,
    "tags": {
      "bench": "no",
      "bin": "no",
      "bus": "yes",
      "highway": "bus_stop",
      "name": "Marine Parade (opposite 109)",
      "network": "Metlink",
      "network:wikidata": "Q7258026",
      "public_transport": "platform",
      "ref": "7062",
      "shelter": "no"
    },
    "region_key": "NZ_WELLINGTON",
    "region_name": "Wellington",
    "region_center": {
      "lat": -41.2865,
      "lng": 174.7762
    },
    "lat": -41.3179377,
    "lon": 174.8283555
  },
  {
    "type": "node",
    "id": 1010237983,
    "tags": {
      "bus": "yes",
      "highway": "bus_stop",
      "name": "Riverside Drive at Freyburg Street",
      "network": "Metlink",
      "network:wikidata": "Q7258026",
      "public_transport": "platform",
      "ref": "9180"
    },
    "region_key": "NZ_WELLINGTON",
    "region_name": "Wellington",
    "region_center": {
      "lat": -41.2865,
      "lng": 174.7762
    },
    "lat": -41.2202747,
    "lon": 174.9267975
  },
  {
    "type": "node",
    "id": 1010237984,
    "tags": {
      "bench": "yes",
      "bin": "no",
      "bus": "yes",
      "highway": "bus_stop",
      "lit": "yes",
      "name": "Montgomery Avenue opposite Caldwell Street",
      "network": "Metlink",
      "network:wikidata": "Q7258026",
      "public_transport": "platform",
      "ref": "4350",
      "shelter": "yes",
      "tactile_paving": "no"
    },
    "region_key": "NZ_WELLINGTON",
    "region_name": "Wellington",
    "region_center": {
      "lat": -41.2865,
      "lng": 174.7762
    },
    "lat": -41.2794078,
    "lon": 174.7282709
  },
  {
    "type": "node",
    "id": 1010237985,
    "tags": {
      "highway": "bus_stop",
      "name": "Thornley Street at Dimock Street",
      "public_transport": "platform",
      "ref": "2844"
    },
    "region_key": "NZ_WELLINGTON",
    "region_name": "Wellington",
    "region_center": {
      "lat": -41.2865,
      "lng": 174.7762
    },
    "lat": -41.0999513,
    "lon": 174.8395149
  },
  {
    "type": "node",
    "id": 1010237987,
    "tags": {
      "bench": "no",
      "bin": "no",
      "bus": "yes",
      "highway": "bus_stop",
      "lit": "no",
      "name": "Parliament Street at Laery Street",
      "network": "Metlink",
      "network:wikidata": "Q7258026",
      "public_transport": "platform",
      "ref": "8105",
      "shelter": "no",
      "tactile_paving": "no"
    },
    "region_key": "NZ_WELLINGTON",
    "region_name": "Wellington",
    "region_center": {
      "lat": -41.2865,
      "lng": 174.7762
    },
    "lat": -41.2109411,
    "lon": 174.892172
  },
  {
    "type": "node",
    "id": 1010237989,
    "tags": {
      "bus": "yes",
      "highway": "bus_stop",
      "name": "Buckley Road (near 45)",
      "network": "Metlink",
      "network:wikidata": "Q7258026",
      "public_transport": "platform",
      "ref": "6949"
    },
    "region_key": "NZ_WELLINGTON",
    "region_name": "Wellington",
    "region_center": {
      "lat": -41.2865,
      "lng": 174.7762
    },
    "lat": -41.332919,
    "lon": 174.7837278
  },
  {
    "type": "node",
    "id": 1010238000,
    "tags": {
      "bus": "yes",
      "departures_board": "timetable",
      "highway": "bus_stop",
      "name": "Wellington Road at Bexley Grove",
      "network": "Metlink",
      "network:wikidata": "Q7258026",
      "public_transport": "platform",
      "ref": "9969"
    },
    "region_key": "NZ_WELLINGTON",
    "region_name": "Wellington",
    "region_center": {
      "lat": -41.2865,
      "lng": 174.7762
    },
    "lat": -41.2353559,
    "lon": 174.947105
  },
  {
    "type": "node",
    "id": 1010238003,
    "tags": {
      "bus": "yes",
      "highway": "bus_stop",
      "name": "Moana Road at Disley Street",
      "network": "Metlink",
      "network:wikidata": "Q7258026",
      "public_transport": "platform",
      "ref": "4944"
    },
    "region_key": "NZ_WELLINGTON",
    "region_name": "Wellington",
    "region_center": {
      "lat": -41.2865,
      "lng": 174.7762
    },
    "lat": -41.2904722,
    "lon": 174.7559397
  },
  {
    "type": "node",
    "id": 1010238005,
    "tags": {
      "bus": "yes",
      "highway": "bus_stop",
      "name": "Stokes Valley Road (near 482)",
      "network": "Metlink",
      "network:wikidata": "Q7258026",
      "public_transport": "platform",
      "ref": "8376"
    },
    "region_key": "NZ_WELLINGTON",
    "region_name": "Wellington",
    "region_center": {
      "lat": -41.2865,
      "lng": 174.7762
    },
    "lat": -41.1909231,
    "lon": 174.9830758
  },
  {
    "type": "node",
    "id": 1010238009,
    "tags": {
      "bus": "yes",
      "highway": "bus_stop",
      "name": "Dowse Drive (near 4)",
      "network": "Metlink",
      "network:wikidata": "Q7258026",
      "public_transport": "platform",
      "ref": "8051"
    },
    "region_key": "NZ_WELLINGTON",
    "region_name": "Wellington",
    "region_center": {
      "lat": -41.2865,
      "lng": 174.7762
    },
    "lat": -41.2160822,
    "lon": 174.8807495
  },
  {
    "type": "node",
    "id": 1010238018,
    "tags": {
      "bus": "yes",
      "highway": "bus_stop",
      "name": "Fergusson Drive opposite Kiwi Street",
      "network": "Metlink",
      "network:wikidata": "Q7258026",
      "public_transport": "platform",
      "ref": "8464"
    },
    "region_key": "NZ_WELLINGTON",
    "region_name": "Wellington",
    "region_center": {
      "lat": -41.2865,
      "lng": 174.7762
    },
    "lat": -41.1437579,
    "lon": 175.0188058
  },
  {
    "type": "node",
    "id": 1010238020,
    "tags": {
      "highway": "bus_stop",
      "note": "Seddon Street (near 95)"
    },
    "region_key": "NZ_WELLINGTON",
    "region_name": "Wellington",
    "region_center": {
      "lat": -41.2865,
      "lng": 174.7762
    },
    "lat": -41.2099831,
    "lon": 174.9524541
  },
  {
    "type": "node",
    "id": 1010238027,
    "tags": {
      "bus": "yes",
      "highway": "bus_stop",
      "name": "Karori Road at Tringham Street",
      "network": "Metlink",
      "network:wikidata": "Q7258026",
      "public_transport": "platform",
      "ref": "4330"
    },
    "region_key": "NZ_WELLINGTON",
    "region_name": "Wellington",
    "region_center": {
      "lat": -41.2865,
      "lng": 174.7762
    },
    "lat": -41.2867382,
    "lon": 174.728726
  },
  {
    "type": "node",
    "id": 1010238033,
    "tags": {
      "bus": "yes",
      "highway": "bus_stop",
      "local_ref": "A",
      "name": "Taita Station - High Street - Stop A",
      "network": "Metlink",
      "network:wikidata": "Q7258026",
      "public_transport": "platform",
      "ref": "8251"
    },
    "region_key": "NZ_WELLINGTON",
    "region_name": "Wellington",
    "region_center": {
      "lat": -41.2865,
      "lng": 174.7762
    },
    "lat": -41.180161,
    "lon": 174.9606716
  },
  {
    "type": "node",
    "id": 1010238035,
    "tags": {
      "bench": "no",
      "bin": "no",
      "bus": "yes",
      "highway": "bus_stop",
      "lit": "no",
      "local_ref": "B",
      "name": "Hutchison Road - Stop B",
      "network": "Metlink",
      "network:wikidata": "Q7258026",
      "public_transport": "platform",
      "ref": "6917",
      "shelter": "yes",
      "tactile_paving": "no"
    },
    "region_key": "NZ_WELLINGTON",
    "region_name": "Wellington",
    "region_center": {
      "lat": -41.2865,
      "lng": 174.7762
    },
    "lat": -41.307203,
    "lon": 174.7759994
  },
  {
    "type": "node",
    "id": 1010238038,
    "tags": {
      "bench": "yes",
      "bin": "no",
      "bus": "yes",
      "highway": "bus_stop",
      "lit": "yes",
      "name": "Brooklyn Road opposite Nairn Street",
      "network": "Metlink",
      "network:wikidata": "Q7258026",
      "public_transport": "platform",
      "ref": "7712",
      "shelter": "yes",
      "tactile_paving": "no"
    },
    "region_key": "NZ_WELLINGTON",
    "region_name": "Wellington",
    "region_center": {
      "lat": -41.2865,
      "lng": 174.7762
    },
    "lat": -41.2972017,
    "lon": 174.7697654
  },
  {
    "type": "node",
    "id": 1010238041,
    "tags": {
      "bus": "yes",
      "highway": "bus_stop",
      "name": "Warspite Avenue (near 115)",
      "public_transport": "platform",
      "ref": "2118"
    },
    "region_key": "NZ_WELLINGTON",
    "region_name": "Wellington",
    "region_center": {
      "lat": -41.2865,
      "lng": 174.7762
    },
    "lat": -41.1360108,
    "lon": 174.8745661
  },
  {
    "type": "node",
    "id": 1010238050,
    "tags": {
      "bus": "yes",
      "highway": "bus_stop",
      "name": "Waddington Drive at Hamerton Street",
      "network": "Metlink",
      "network:wikidata": "Q7258026",
      "public_transport": "platform",
      "ref": "8272"
    },
    "region_key": "NZ_WELLINGTON",
    "region_name": "Wellington",
    "region_center": {
      "lat": -41.2865,
      "lng": 174.7762
    },
    "lat": -41.2041835,
    "lon": 174.9409947
  },
  {
    "type": "node",
    "id": 1010238054,
    "tags": {
      "bus": "yes",
      "highway": "bus_stop",
      "name": "Quebec Street at Baffin Grove",
      "network": "Metlink",
      "network:wikidata": "Q7258026",
      "public_transport": "platform",
      "ref": "7729",
      "shelter": "yes"
    },
    "region_key": "NZ_WELLINGTON",
    "region_name": "Wellington",
    "region_center": {
      "lat": -41.2865,
      "lng": 174.7762
    },
    "lat": -41.3209166,
    "lon": 174.7636384
  },
  {
    "type": "node",
    "id": 1010238057,
    "tags": {
      "bus": "yes",
      "highway": "bus_stop",
      "name": "Wainuiomata Road at Gracefield Road",
      "network": "Metlink",
      "network:wikidata": "Q7258026",
      "public_transport": "platform",
      "ref": "9748"
    },
    "region_key": "NZ_WELLINGTON",
    "region_name": "Wellington",
    "region_center": {
      "lat": -41.2865,
      "lng": 174.7762
    },
    "lat": -41.2311456,
    "lon": 174.9208078
  },
  {
    "type": "node",
    "id": 1010238059,
    "tags": {
      "bus": "yes",
      "highway": "bus_stop",
      "name": "Sunshine Avenue at Victory Avenue (near 46)",
      "network": "Metlink",
      "network:wikidata": "Q7258026",
      "public_transport": "platform",
      "ref": "4344"
    },
    "region_key": "NZ_WELLINGTON",
    "region_name": "Wellington",
    "region_center": {
      "lat": -41.2865,
      "lng": 174.7762
    },
    "lat": -41.2825403,
    "lon": 174.7277069
  },
  {
    "type": "node",
    "id": 1010238064,
    "tags": {
      "bus": "yes",
      "highway": "bus_stop",
      "name": "The Glen - Horoeka Street at Glen Road (near 2)",
      "network": "Metlink",
      "network:wikidata": "Q7258026",
      "public_transport": "platform",
      "ref": "9328"
    },
    "region_key": "NZ_WELLINGTON",
    "region_name": "Wellington",
    "region_center": {
      "lat": -41.2865,
      "lng": 174.7762
    },
    "lat": -41.1710578,
    "lon": 174.9863588
  },
  {
    "type": "node",
    "id": 1010238066,
    "tags": {
      "bench": "yes",
      "bin": "no",
      "bus": "yes",
      "highway": "bus_stop",
      "lit": "no",
      "name": "Melrose Road (near 32)",
      "network": "Metlink",
      "network:wikidata": "Q7258026",
      "public_transport": "platform",
      "ref": "6958",
      "shelter": "no",
      "tactile_paving": "no"
    },
    "region_key": "NZ_WELLINGTON",
    "region_name": "Wellington",
    "region_center": {
      "lat": -41.2865,
      "lng": 174.7762
    },
    "lat": -41.3368607,
    "lon": 174.7792941
  },
  {
    "type": "node",
    "id": 1010238069,
    "tags": {
      "bus": "yes",
      "departures_board": "timetable",
      "highway": "bus_stop",
      "name": "Nelson Crescent at Wise Street (near 17)",
      "network": "Metlink",
      "network:wikidata": "Q7258026",
      "public_transport": "platform",
      "ref": "8982",
      "shelter": "no"
    },
    "region_key": "NZ_WELLINGTON",
    "region_name": "Wellington",
    "region_center": {
      "lat": -41.2865,
      "lng": 174.7762
    },
    "lat": -41.2549299,
    "lon": 174.9510871
  },
  {
    "type": "node",
    "id": 1010238072,
    "tags": {
      "bench": "no",
      "bin": "no",
      "bus": "yes",
      "highway": "bus_stop",
      "lit": "yes",
      "name": "Highbury Road at Disley Street (near 25)",
      "network": "Metlink",
      "network:wikidata": "Q7258026",
      "public_transport": "platform",
      "ref": "5946",
      "shelter": "no",
      "tactile_paving": "no"
    },
    "region_key": "NZ_WELLINGTON",
    "region_name": "Wellington",
    "region_center": {
      "lat": -41.2865,
      "lng": 174.7762
    },
    "lat": -41.2925594,
    "lon": 174.7549208
  },
  {
    "type": "node",
    "id": 1010238074,
    "tags": {
      "bus": "yes",
      "highway": "bus_stop",
      "name": "Warspite Avenue (near 431)",
      "public_transport": "platform",
      "ref": "2778",
      "shelter": "no",
      "tactile_paving": "no"
    },
    "region_key": "NZ_WELLINGTON",
    "region_name": "Wellington",
    "region_center": {
      "lat": -41.2865,
      "lng": 174.7762
    },
    "lat": -41.12213,
    "lon": 174.8721381
  },
  {
    "type": "node",
    "id": 1010238083,
    "tags": {
      "bench": "yes",
      "bus": "yes",
      "highway": "bus_stop",
      "name": "Naenae Station (bus stop)",
      "network": "Metlink",
      "network:wikidata": "Q7258026",
      "public_transport": "platform",
      "ref": "8289",
      "shelter": "yes"
    },
    "region_key": "NZ_WELLINGTON",
    "region_name": "Wellington",
    "region_center": {
      "lat": -41.2865,
      "lng": 174.7762
    },
    "lat": -41.1985092,
    "lon": 174.9463127
  },
  {
    "type": "node",
    "id": 1010238085,
    "tags": {
      "bench": "yes",
      "bin": "yes",
      "bus": "yes",
      "highway": "bus_stop",
      "lit": "yes",
      "name": "Riddiford Street near Donald Mclean Street",
      "network": "Metlink",
      "network:wikidata": "Q7258026",
      "public_transport": "platform",
      "ref": "6920",
      "shelter": "yes",
      "tactile_paving": "no"
    },
    "region_key": "NZ_WELLINGTON",
    "region_name": "Wellington",
    "region_center": {
      "lat": -41.2865,
      "lng": 174.7762
    },
    "lat": -41.3158043,
    "lon": 174.7805397
  },
  {
    "type": "node",
    "id": 1010238086,
    "tags": {
      "bench": "yes",
      "bin": "yes",
      "bus": "yes",
      "departures_board": "realtime",
      "highway": "bus_stop",
      "name": "Randwick Road at Moera Library",
      "public_transport": "platform",
      "ref": "9156",
      "shelter": "yes"
    },
    "region_key": "NZ_WELLINGTON",
    "region_name": "Wellington",
    "region_center": {
      "lat": -41.2865,
      "lng": 174.7762
    },
    "lat": -41.2259464,
    "lon": 174.9057754
  },
  {
    "type": "node",
    "id": 1010238087,
    "tags": {
      "bench": "no",
      "bin": "no",
      "bus": "yes",
      "highway": "bus_stop",
      "lit": "yes",
      "name": "Molesworth Street - Cathedral",
      "network": "Metlink",
      "network:wikidata": "Q7258026",
      "public_transport": "platform",
      "ref": "5112",
      "shelter": "yes",
      "tactile_paving": "no"
    },
    "region_key": "NZ_WELLINGTON",
    "region_name": "Wellington",
    "region_center": {
      "lat": -41.2865,
      "lng": 174.7762
    },
    "lat": -41.2758474,
    "lon": 174.7777506
  },
  {
    "type": "node",
    "id": 1010238090,
    "tags": {
      "bus": "yes",
      "highway": "bus_stop",
      "name": "Akatarawa Road - Birchville Picnic Area (opposite)",
      "network": "Metlink",
      "network:wikidata": "Q7258026",
      "public_transport": "platform",
      "ref": "8694"
    },
    "region_key": "NZ_WELLINGTON",
    "region_name": "Wellington",
    "region_center": {
      "lat": -41.2865,
      "lng": 174.7762
    },
    "lat": -41.0915362,
    "lon": 175.0982844
  },
  {
    "type": "node",
    "id": 1010238099,
    "tags": {
      "bus": "yes",
      "highway": "bus_stop",
      "name": "Field Street (near 97)",
      "public_transport": "platform",
      "ref": "8413"
    },
    "region_key": "NZ_WELLINGTON",
    "region_name": "Wellington",
    "region_center": {
      "lat": -41.2865,
      "lng": 174.7762
    },
    "lat": -41.1548001,
    "lon": 175.0105087
  },
  {
    "type": "node",
    "id": 1010238102,
    "tags": {
      "bench": "yes",
      "bin": "no",
      "bus": "yes",
      "highway": "bus_stop",
      "lit": "no",
      "name": "Hornsey Road near 48",
      "note": "Hornsey Road (near 48)",
      "public_transport": "platform",
      "ref": "7930",
      "shelter": "yes",
      "tactile_paving": "no"
    },
    "region_key": "NZ_WELLINGTON",
    "region_name": "Wellington",
    "region_center": {
      "lat": -41.2865,
      "lng": 174.7762
    },
    "lat": -41.3300637,
    "lon": 174.7859793
  },
  {
    "type": "node",
    "id": 1010238106,
    "tags": {
      "bus": "yes",
      "highway": "bus_stop",
      "name": "Beauchamp Street (near 60)",
      "network": "Metlink",
      "network:wikidata": "Q7258026",
      "public_transport": "platform",
      "ref": "5394"
    },
    "region_key": "NZ_WELLINGTON",
    "region_name": "Wellington",
    "region_center": {
      "lat": -41.2865,
      "lng": 174.7762
    },
    "lat": -41.2891071,
    "lon": 174.7390648
  },
  {
    "type": "node",
    "id": 1010238111,
    "tags": {
      "bus": "yes",
      "highway": "bus_stop",
      "name": "Eastern Hutt Road at Peterkin Street North (near 80)",
      "network": "Metlink",
      "network:wikidata": "Q7258026",
      "public_transport": "platform",
      "ref": "8296"
    },
    "region_key": "NZ_WELLINGTON",
    "region_name": "Wellington",
    "region_center": {
      "lat": -41.2865,
      "lng": 174.7762
    },
    "lat": -41.1838691,
    "lon": 174.961447
  },
  {
    "type": "node",
    "id": 1010238113,
    "tags": {
      "bus": "yes",
      "highway": "bus_stop",
      "name": "Nevay Road (near 18)",
      "network": "Metlink",
      "network:wikidata": "Q7258026",
      "public_transport": "platform",
      "ref": "6269",
      "shelter": "no",
      "tactile_paving": "no"
    },
    "region_key": "NZ_WELLINGTON",
    "region_name": "Wellington",
    "region_center": {
      "lat": -41.2865,
      "lng": 174.7762
    },
    "lat": -41.3106027,
    "lon": 174.8282746
  },
  {
    "type": "node",
    "id": 1010238115,
    "tags": {
      "bus": "yes",
      "highway": "bus_stop",
      "name": "Bracken Road (near 29)",
      "network": "Metlink",
      "network:wikidata": "Q7258026",
      "public_transport": "platform",
      "ref": "3410"
    },
    "region_key": "NZ_WELLINGTON",
    "region_name": "Wellington",
    "region_center": {
      "lat": -41.2865,
      "lng": 174.7762
    },
    "lat": -41.2216041,
    "lon": 174.8230492
  },
  {
    "type": "node",
    "id": 1010238119,
    "tags": {
      "bus": "yes",
      "highway": "bus_stop",
      "name": "Hine Road (near 106)",
      "network": "Metlink",
      "network:wikidata": "Q7258026",
      "public_transport": "platform",
      "ref": "8920"
    },
    "region_key": "NZ_WELLINGTON",
    "region_name": "Wellington",
    "region_center": {
      "lat": -41.2865,
      "lng": 174.7762
    },
    "lat": -41.2748458,
    "lon": 174.9648166
  },
  {
    "type": "node",
    "id": 1010238121,
    "tags": {
      "bus": "yes",
      "highway": "bus_stop",
      "name": "Kenepuru Drive at Bishop Viard College",
      "public_transport": "platform",
      "ref": "3936"
    },
    "region_key": "NZ_WELLINGTON",
    "region_name": "Wellington",
    "region_center": {
      "lat": -41.2865,
      "lng": 174.7762
    },
    "lat": -41.1405024,
    "lon": 174.841887
  },
  {
    "type": "node",
    "id": 1010238129,
    "tags": {
      "bus": "yes",
      "highway": "bus_stop",
      "name": "Lakewood Reserve",
      "network": "Metlink",
      "network:wikidata": "Q7258026",
      "public_transport": "platform",
      "ref": "3236"
    },
    "region_key": "NZ_WELLINGTON",
    "region_name": "Wellington",
    "region_center": {
      "lat": -41.2865,
      "lng": 174.7762
    },
    "lat": -41.2071407,
    "lon": 174.8051879
  },
  {
    "type": "node",
    "id": 1010238130,
    "tags": {
      "bus": "yes",
      "highway": "bus_stop",
      "local_ref": "B",
      "name": "Kingston - Stop B",
      "network": "Metlink",
      "network:wikidata": "Q7258026",
      "public_transport": "platform",
      "ref": "6730"
    },
    "region_key": "NZ_WELLINGTON",
    "region_name": "Wellington",
    "region_center": {
      "lat": -41.2865,
      "lng": 174.7762
    },
    "lat": -41.3237662,
    "lon": 174.7638733
  },
  {
    "type": "node",
    "id": 1010238131,
    "tags": {
      "bus": "yes",
      "departures_board": "timetable",
      "highway": "bus_stop",
      "name": "Wellington Road at Whitehall Street",
      "network": "Metlink",
      "network:wikidata": "Q7258026",
      "public_transport": "platform",
      "ref": "8967",
      "shelter": "no"
    },
    "region_key": "NZ_WELLINGTON",
    "region_name": "Wellington",
    "region_center": {
      "lat": -41.2865,
      "lng": 174.7762
    },
    "lat": -41.2401885,
    "lon": 174.9455125
  },
  {
    "type": "node",
    "id": 1010238132,
    "tags": {
      "bus": "yes",
      "highway": "bus_stop",
      "name": "Conclusion Street (near 47)",
      "public_transport": "platform",
      "ref": "2132"
    },
    "region_key": "NZ_WELLINGTON",
    "region_name": "Wellington",
    "region_center": {
      "lat": -41.2865,
      "lng": 174.7762
    },
    "lat": -41.1181626,
    "lon": 174.875387
  },
  {
    "type": "node",
    "id": 1010238134,
    "tags": {
      "bus": "yes",
      "highway": "bus_stop",
      "name": "Taita College - Eastern Hutt Road",
      "network": "Metlink",
      "network:wikidata": "Q7258026",
      "public_transport": "platform",
      "ref": "8298"
    },
    "region_key": "NZ_WELLINGTON",
    "region_name": "Wellington",
    "region_center": {
      "lat": -41.2865,
      "lng": 174.7762
    },
    "lat": -41.1746212,
    "lon": 174.9672337
  },
  {
    "type": "node",
    "id": 1010238142,
    "tags": {
      "bus": "yes",
      "highway": "bus_stop",
      "name": "Muritai Road at Tawa Street",
      "network": "Metlink",
      "network:wikidata": "Q7258026",
      "public_transport": "platform",
      "ref": "9857"
    },
    "region_key": "NZ_WELLINGTON",
    "region_name": "Wellington",
    "region_center": {
      "lat": -41.2865,
      "lng": 174.7762
    },
    "lat": -41.3051808,
    "lon": 174.8888194
  },
  {
    "type": "node",
    "id": 1010238144,
    "tags": {
      "bus": "yes",
      "highway": "bus_stop",
      "name": "Ohariu Road (near 67)",
      "network": "Metlink",
      "network:wikidata": "Q7258026",
      "public_transport": "platform",
      "ref": "3014"
    },
    "region_key": "NZ_WELLINGTON",
    "region_name": "Wellington",
    "region_center": {
      "lat": -41.2865,
      "lng": 174.7762
    },
    "lat": -41.2171535,
    "lon": 174.8025273
  },
  {
    "type": "node",
    "id": 1010238146,
    "tags": {
      "bench": "yes",
      "bin": "no",
      "bus": "yes",
      "highway": "bus_stop",
      "lit": "no",
      "name": "Kaikoura Street at Tamahine Street",
      "network": "Metlink",
      "network:wikidata": "Q7258026",
      "operator": "Metlink",
      "public_transport": "platform",
      "ref": "7258",
      "shelter": "yes",
      "tactile_paving": "no"
    },
    "region_key": "NZ_WELLINGTON",
    "region_name": "Wellington",
    "region_center": {
      "lat": -41.2865,
      "lng": 174.7762
    },
    "lat": -41.3042244,
    "lon": 174.8186642
  },
  {
    "type": "node",
    "id": 1010238149,
    "tags": {
      "bench": "no",
      "bin": "no",
      "bus": "yes",
      "highway": "bus_stop",
      "lit": "no",
      "name": "Lane Street (near 4)",
      "public_transport": "platform",
      "ref": "8533",
      "shelter": "no",
      "tactile_paving": "no"
    },
    "region_key": "NZ_WELLINGTON",
    "region_name": "Wellington",
    "region_center": {
      "lat": -41.2865,
      "lng": 174.7762
    },
    "lat": -41.1335402,
    "lon": 175.0609449
  },
  {
    "type": "node",
    "id": 1010238152,
    "tags": {
      "bus": "yes",
      "highway": "bus_stop",
      "name": "Naenae Road at Horlor Street (near 116)",
      "network": "Metlink",
      "network:wikidata": "Q7258026",
      "public_transport": "platform",
      "ref": "8259"
    },
    "region_key": "NZ_WELLINGTON",
    "region_name": "Wellington",
    "region_center": {
      "lat": -41.2865,
      "lng": 174.7762
    },
    "lat": -41.2025006,
    "lon": 174.9446421
  },
  {
    "type": "node",
    "id": 1010238156,
    "tags": {
      "bus": "yes",
      "highway": "bus_stop",
      "note": "Cotswold Street (Hail & Ride)",
      "public_transport": "platform"
    },
    "region_key": "NZ_WELLINGTON",
    "region_name": "Wellington",
    "region_center": {
      "lat": -41.2865,
      "lng": 174.7762
    },
    "lat": -41.2278738,
    "lon": 174.8136082
  },
  {
    "type": "node",
    "id": 1010238158,
    "tags": {
      "bench": "no",
      "bin": "no",
      "bus": "yes",
      "highway": "bus_stop",
      "lit": "yes",
      "name": "Raroa Road (near 1)",
      "network": "Metlink",
      "network:wikidata": "Q7258026",
      "public_transport": "platform",
      "ref": "4941",
      "shelter": "no",
      "tactile_paving": "no"
    },
    "region_key": "NZ_WELLINGTON",
    "region_name": "Wellington",
    "region_center": {
      "lat": -41.2865,
      "lng": 174.7762
    },
    "lat": -41.2876792,
    "lon": 174.7559842
  },
  {
    "type": "node",
    "id": 1010238161,
    "tags": {
      "highway": "bus_stop",
      "name": "Hiwi Crescent (near 22)",
      "public_transport": "platform",
      "ref": "2936"
    },
    "region_key": "NZ_WELLINGTON",
    "region_name": "Wellington",
    "region_center": {
      "lat": -41.2865,
      "lng": 174.7762
    },
    "lat": -41.1135611,
    "lon": 174.8296908
  },
  {
    "type": "node",
    "id": 1010238164,
    "tags": {
      "bench": "yes",
      "bin": "yes",
      "bus": "yes",
      "highway": "bus_stop",
      "name": "Stokes Valley Road at George Street (near 52)",
      "network": "Metlink",
      "network:wikidata": "Q7258026",
      "public_transport": "platform",
      "ref": "8362",
      "shelter": "yes",
      "tactile_paving": "no"
    },
    "region_key": "NZ_WELLINGTON",
    "region_name": "Wellington",
    "region_center": {
      "lat": -41.2865,
      "lng": 174.7762
    },
    "lat": -41.1642734,
    "lon": 174.9844813
  },
  {
    "type": "node",
    "id": 1010238166,
    "tags": {
      "bus": "yes",
      "departures_board": "timetable",
      "highway": "bus_stop",
      "name": "Wainuiomata High School - Parkway",
      "network": "Metlink",
      "network:wikidata": "Q7258026",
      "public_transport": "platform",
      "ref": "8959",
      "shelter": "yes"
    },
    "region_key": "NZ_WELLINGTON",
    "region_name": "Wellington",
    "region_center": {
      "lat": -41.2865,
      "lng": 174.7762
    },
    "lat": -41.2514782,
    "lon": 174.9367599
  },
  {
    "type": "node",
    "id": 1010238175,
    "tags": {
      "bus": "yes",
      "highway": "bus_stop",
      "name": "Nevay Road (near 198)",
      "network": "Metlink",
      "network:wikidata": "Q7258026",
      "public_transport": "platform",
      "ref": "7263"
    },
    "region_key": "NZ_WELLINGTON",
    "region_name": "Wellington",
    "region_center": {
      "lat": -41.2865,
      "lng": 174.7762
    },
    "lat": -41.2985308,
    "lon": 174.8284151
  },
  {
    "type": "node",
    "id": 1010238176,
    "tags": {
      "bus": "yes",
      "highway": "bus_stop",
      "name": "Warspite Avenue (near 183)",
      "public_transport": "platform",
      "ref": "2122"
    },
    "region_key": "NZ_WELLINGTON",
    "region_name": "Wellington",
    "region_center": {
      "lat": -41.2865,
      "lng": 174.7762
    },
    "lat": -41.132213,
    "lon": 174.8800572
  },
  {
    "type": "node",
    "id": 1010238178,
    "tags": {
      "bus": "yes",
      "highway": "bus_stop",
      "name": "Park Road at Natusch Road (near 12)",
      "network": "Metlink",
      "network:wikidata": "Q7258026",
      "public_transport": "platform",
      "ref": "8348"
    },
    "region_key": "NZ_WELLINGTON",
    "region_name": "Wellington",
    "region_center": {
      "lat": -41.2865,
      "lng": 174.7762
    },
    "lat": -41.1930877,
    "lon": 174.9205147
  },
  {
    "type": "node",
    "id": 1010238179,
    "tags": {
      "bench": "no",
      "bin": "no",
      "bus": "yes",
      "check_date:shelter": "2022-11-03",
      "highway": "bus_stop",
      "lit": "no",
      "name": "Sutherland road at Rodrigo Road",
      "note": "Sutherland Road at Rodrigo Road",
      "public_transport": "platform",
      "ref": "6926",
      "shelter": "no",
      "tactile_paving": "no"
    },
    "region_key": "NZ_WELLINGTON",
    "region_name": "Wellington",
    "region_center": {
      "lat": -41.2865,
      "lng": 174.7762
    },
    "lat": -41.322578,
    "lon": 174.7890511
  },
  {
    "type": "node",
    "id": 1010238182,
    "tags": {
      "bus": "yes",
      "highway": "bus_stop",
      "name": "Riverside Drive at Guthrie Street",
      "network": "Metlink",
      "network:wikidata": "Q7258026",
      "public_transport": "platform",
      "ref": "9172"
    },
    "region_key": "NZ_WELLINGTON",
    "region_name": "Wellington",
    "region_center": {
      "lat": -41.2865,
      "lng": 174.7762
    },
    "lat": -41.2228037,
    "lon": 174.921661
  },
  {
    "type": "node",
    "id": 1010238190,
    "tags": {
      "bus": "yes",
      "highway": "bus_stop",
      "name": "Birdwood Street opposite Braithwaite Street",
      "network": "Metlink",
      "network:wikidata": "Q7258026",
      "public_transport": "platform",
      "ref": "5381"
    },
    "region_key": "NZ_WELLINGTON",
    "region_name": "Wellington",
    "region_center": {
      "lat": -41.2865,
      "lng": 174.7762
    },
    "lat": -41.283875,
    "lon": 174.7505506
  },
  {
    "type": "node",
    "id": 1010238198,
    "tags": {
      "access": "no",
      "bus": "yes",
      "highway": "bus_stop",
      "name": "Happy Valley Road opposite ÅŒwhiro Bay School",
      "network": "Metlink",
      "network:wikidata": "Q7258026",
      "public_transport": "platform",
      "ref": "7149",
      "school_bus": "designated",
      "shelter": "no"
    },
    "region_key": "NZ_WELLINGTON",
    "region_name": "Wellington",
    "region_center": {
      "lat": -41.2865,
      "lng": 174.7762
    },
    "lat": -41.3385125,
    "lon": 174.7597395
  },
  {
    "type": "node",
    "id": 1010238200,
    "tags": {
      "bench": "yes",
      "bin": "no",
      "bus": "yes",
      "highway": "bus_stop",
      "lit": "yes",
      "local_ref": "B",
      "name": "Khandallah Village - Stop B",
      "network": "Metlink",
      "network:wikidata": "Q7258026",
      "public_transport": "platform",
      "ref": "5419",
      "shelter": "yes",
      "tactile_paving": "no"
    },
    "region_key": "NZ_WELLINGTON",
    "region_name": "Wellington",
    "region_center": {
      "lat": -41.2865,
      "lng": 174.7762
    },
    "lat": -41.2471447,
    "lon": 174.7911785
  },
  {
    "type": "node",
    "id": 1010238204,
    "tags": {
      "bench": "yes",
      "bin": "yes",
      "bus": "yes",
      "highway": "bus_stop",
      "lit": "yes",
      "local_ref": "A",
      "name": "Courtenay Place - Stop A",
      "network": "Metlink",
      "network:wikidata": "Q7258026",
      "public_transport": "platform",
      "ref": "5000",
      "shelter": "yes",
      "tactile_paving": "no"
    },
    "region_key": "NZ_WELLINGTON",
    "region_name": "Wellington",
    "region_center": {
      "lat": -41.2865,
      "lng": 174.7762
    },
    "lat": -41.2938311,
    "lon": 174.7823695
  },
  {
    "type": "node",
    "id": 1010238206,
    "tags": {
      "bench": "yes",
      "bus": "yes",
      "highway": "bus_stop",
      "name": "Takapuwahia Drive at Te Hiko Street (near 55)",
      "network": "Metlink",
      "network:wikidata": "Q7258026",
      "network:wikipedia": "en:Public transport in the Wellington Region",
      "operator": "Tranzurban Wellington",
      "public_transport": "platform",
      "ref": "2870",
      "shelter": "yes",
      "tactile_paving": "no"
    },
    "region_key": "NZ_WELLINGTON",
    "region_name": "Wellington",
    "region_center": {
      "lat": -41.2865,
      "lng": 174.7762
    },
    "lat": -41.1245817,
    "lon": 174.8319899
  },
  {
    "type": "node",
    "id": 1010238210,
    "tags": {
      "bus": "yes",
      "highway": "bus_stop",
      "name": "Para Street at Holy Cross School",
      "network": "Metlink",
      "network:wikidata": "Q7258026",
      "public_transport": "platform",
      "ref": "6274"
    },
    "region_key": "NZ_WELLINGTON",
    "region_name": "Wellington",
    "region_center": {
      "lat": -41.2865,
      "lng": 174.7762
    },
    "lat": -41.3173188,
    "lon": 174.8193826
  },
  {
    "type": "node",
    "id": 1010238212,
    "tags": {
      "bench": "no",
      "bin": "no",
      "bus": "yes",
      "highway": "bus_stop",
      "lit": "yes",
      "name": "Cuba Street at Burnham Street",
      "old_name": "Cuba Street at Burnham Street (nearÂ 150)",
      "public_transport": "platform",
      "ref": "8009",
      "shelter": "no",
      "surface": "concrete"
    },
    "region_key": "NZ_WELLINGTON",
    "region_name": "Wellington",
    "region_center": {
      "lat": -41.2865,
      "lng": 174.7762
    },
    "lat": -41.2196759,
    "lon": 174.8892508
  },
  {
    "type": "node",
    "id": 1010238214,
    "tags": {
      "bus": "yes",
      "highway": "bus_stop",
      "name": "Grant Road opposite Newman Terrace",
      "network": "Metlink",
      "network:wikidata": "Q7258026",
      "public_transport": "platform",
      "ref": "5116"
    },
    "region_key": "NZ_WELLINGTON",
    "region_name": "Wellington",
    "region_center": {
      "lat": -41.2865,
      "lng": 174.7762
    },
    "lat": -41.2690081,
    "lon": 174.7785073
  },
  {
    "type": "node",
    "id": 1010238224,
    "tags": {
      "bus": "yes",
      "highway": "bus_stop",
      "name": "Plateau Road (near 54)",
      "network": "Metlink",
      "network:wikidata": "Q7258026",
      "public_transport": "platform",
      "ref": "8622"
    },
    "region_key": "NZ_WELLINGTON",
    "region_name": "Wellington",
    "region_center": {
      "lat": -41.2865,
      "lng": 174.7762
    },
    "lat": -41.0968481,
    "lon": 175.1327448
  },
  {
    "type": "node",
    "id": 1010238226,
    "tags": {
      "bench": "no",
      "bin": "no",
      "bus": "yes",
      "highway": "bus_stop",
      "lit": "no",
      "name": "Sutherland Road at Queens Drive",
      "network": "Metlink",
      "network:wikidata": "Q7258026",
      "public_transport": "platform",
      "ref": "6336",
      "shelter": "no",
      "tactile_paving": "no"
    },
    "region_key": "NZ_WELLINGTON",
    "region_name": "Wellington",
    "region_center": {
      "lat": -41.2865,
      "lng": 174.7762
    },
    "lat": -41.3323041,
    "lon": 174.7906593
  },
  {
    "type": "node",
    "id": 1010238228,
    "tags": {
      "bus": "yes",
      "highway": "bus_stop",
      "name": "Parkside Road at Bell Road",
      "network": "Metlink",
      "network:wikidata": "Q7258026",
      "public_transport": "platform",
      "ref": "9704"
    },
    "region_key": "NZ_WELLINGTON",
    "region_name": "Wellington",
    "region_center": {
      "lat": -41.2865,
      "lng": 174.7762
    },
    "lat": -41.2341817,
    "lon": 174.9138424
  },
  {
    "type": "node",
    "id": 1010238236,
    "tags": {
      "bus": "yes",
      "highway": "bus_stop",
      "name": "Hill Road at Foster Crescent (near 60)",
      "network": "Metlink",
      "network:wikidata": "Q7258026",
      "public_transport": "platform",
      "ref": "8355"
    },
    "region_key": "NZ_WELLINGTON",
    "region_name": "Wellington",
    "region_center": {
      "lat": -41.2865,
      "lng": 174.7762
    },
    "lat": -41.1879512,
    "lon": 174.9228894
  },
  {
    "type": "node",
    "id": 1010238240,
    "tags": {
      "bus": "yes",
      "highway": "bus_stop",
      "name": "Ohiro Road (near 329)",
      "network": "Metlink",
      "network:wikidata": "Q7258026",
      "public_transport": "platform",
      "ref": "6792"
    },
    "region_key": "NZ_WELLINGTON",
    "region_name": "Wellington",
    "region_center": {
      "lat": -41.2865,
      "lng": 174.7762
    },
    "lat": -41.3125504,
    "lon": 174.7618169
  },
  {
    "type": "node",
    "id": 1010238242,
    "tags": {
      "bus": "yes",
      "highway": "bus_stop",
      "name": "Dowse Drive at Magnolia Grove (near 24)",
      "network": "Metlink",
      "network:wikidata": "Q7258026",
      "public_transport": "platform",
      "ref": "8052"
    },
    "region_key": "NZ_WELLINGTON",
    "region_name": "Wellington",
    "region_center": {
      "lat": -41.2865,
      "lng": 174.7762
    },
    "lat": -41.2154734,
    "lon": 174.87942
  },
  {
    "type": "node",
    "id": 1010238244,
    "tags": {
      "bench": "no",
      "bin": "no",
      "bus": "yes",
      "highway": "bus_stop",
      "lit": "no",
      "name": "Apuka Street at Mitchell Street",
      "network": "Metlink",
      "network:wikidata": "Q7258026",
      "public_transport": "platform",
      "ref": "6764",
      "shelter": "no",
      "tactile_paving": "no"
    },
    "region_key": "NZ_WELLINGTON",
    "region_name": "Wellington",
    "region_center": {
      "lat": -41.2865,
      "lng": 174.7762
    },
    "lat": -41.3022612,
    "lon": 174.7603379
  },
  {
    "type": "node",
    "id": 1010238246,
    "tags": {
      "bus": "yes",
      "highway": "bus_stop",
      "name": "Trust Porirua Park - Mungavin Avenue",
      "public_transport": "platform",
      "ref": "2172"
    },
    "region_key": "NZ_WELLINGTON",
    "region_name": "Wellington",
    "region_center": {
      "lat": -41.2865,
      "lng": 174.7762
    },
    "lat": -41.1430387,
    "lon": 174.8565754
  },
  {
    "type": "node",
    "id": 1010238250,
    "tags": {
      "bus": "yes",
      "departures_board": "timetable",
      "highway": "bus_stop",
      "name": "Waterloo Road at Queensgate",
      "network": "Metlink",
      "network:wikidata": "Q7258026",
      "public_transport": "platform",
      "ref": "8160",
      "shelter": "no"
    },
    "region_key": "NZ_WELLINGTON",
    "region_name": "Wellington",
    "region_center": {
      "lat": -41.2865,
      "lng": 174.7762
    },
    "lat": -41.2090548,
    "lon": 174.9072855
  },
  {
    "type": "node",
    "id": 1010238252,
    "tags": {
      "bench": "no",
      "bin": "no",
      "bus": "yes",
      "highway": "bus_stop",
      "lit": "no",
      "name": "Broadway at Hobart Street",
      "network": "Metlink",
      "network:wikidata": "Q7258026",
      "public_transport": "platform",
      "ref": "6033",
      "shelter": "no",
      "tactile_paving": "no"
    },
    "region_key": "NZ_WELLINGTON",
    "region_name": "Wellington",
    "region_center": {
      "lat": -41.2865,
      "lng": 174.7762
    },
    "lat": -41.3252561,
    "lon": 174.8123625
  },
  {
    "type": "node",
    "id": 1010238254,
    "tags": {
      "bus": "yes",
      "highway": "bus_stop",
      "name": "Parenga Street at Ngaturi Grove",
      "network": "Metlink",
      "network:wikidata": "Q7258026",
      "public_transport": "platform",
      "ref": "9913"
    },
    "region_key": "NZ_WELLINGTON",
    "region_name": "Wellington",
    "region_center": {
      "lat": -41.2865,
      "lng": 174.7762
    },
    "lat": -41.2858126,
    "lon": 174.9502192
  },
  {
    "type": "node",
    "id": 1010238257,
    "tags": {
      "bus": "yes",
      "highway": "bus_stop",
      "name": "Eskdale Road at Forth Place (near 16)",
      "public_transport": "platform",
      "ref": "2588"
    },
    "region_key": "NZ_WELLINGTON",
    "region_name": "Wellington",
    "region_center": {
      "lat": -41.2865,
      "lng": 174.7762
    },
    "lat": -41.1104826,
    "lon": 174.8657046
  },
  {
    "type": "node",
    "id": 1010238259,
    "tags": {
      "bus": "yes",
      "highway": "bus_stop",
      "name": "Reynolds Street at Pearce Crescent",
      "network": "Metlink",
      "network:wikidata": "Q7258026",
      "public_transport": "platform",
      "ref": "8237"
    },
    "region_key": "NZ_WELLINGTON",
    "region_name": "Wellington",
    "region_center": {
      "lat": -41.2865,
      "lng": 174.7762
    },
    "lat": -41.1788795,
    "lon": 174.95658
  },
  {
    "type": "node",
    "id": 1010238268,
    "tags": {
      "bench": "yes",
      "bin": "no",
      "bus": "yes",
      "highway": "bus_stop",
      "lit": "no",
      "name": "Owhiro Bay - Happy Valley Road",
      "network": "Metlink",
      "network:wikidata": "Q7258026",
      "public_transport": "platform",
      "ref": "7153",
      "shelter": "yes",
      "tactile_paving": "no"
    },
    "region_key": "NZ_WELLINGTON",
    "region_name": "Wellington",
    "region_center": {
      "lat": -41.2865,
      "lng": 174.7762
    },
    "lat": -41.3441576,
    "lon": 174.7593076
  },
  {
    "type": "node",
    "id": 1010238270,
    "tags": {
      "bench": "no",
      "bin": "no",
      "bus": "yes",
      "highway": "bus_stop",
      "lit": "yes",
      "name": "Hutt Road at Aotea Quay (rail side)",
      "public_transport": "platform",
      "ref": "5488",
      "shelter": "yes",
      "surface": "concrete"
    },
    "region_key": "NZ_WELLINGTON",
    "region_name": "Wellington",
    "region_center": {
      "lat": -41.2865,
      "lng": 174.7762
    },
    "lat": -41.2646002,
    "lon": 174.7843957
  },
  {
    "type": "node",
    "id": 1010238272,
    "tags": {
      "bench": "yes",
      "bin": "yes",
      "bus": "yes",
      "highway": "bus_stop",
      "lit": "no",
      "name": "Brougham Street at Elizabeth Street",
      "name:en": "7213",
      "network": "Metlink",
      "network:wikidata": "Q7258026",
      "public_transport": "platform",
      "ref": "7213",
      "shelter": "yes",
      "tactile_paving": "no"
    },
    "region_key": "NZ_WELLINGTON",
    "region_name": "Wellington",
    "region_center": {
      "lat": -41.2865,
      "lng": 174.7762
    },
    "lat": -41.296816,
    "lon": 174.7852177
  },
  {
    "type": "node",
    "id": 1010238274,
    "tags": {
      "bus": "yes",
      "highway": "bus_stop",
      "name": "Waitangirua Mall - Warspite Avenue (opposite)",
      "public_transport": "platform",
      "ref": "2150"
    },
    "region_key": "NZ_WELLINGTON",
    "region_name": "Wellington",
    "region_center": {
      "lat": -41.2865,
      "lng": 174.7762
    },
    "lat": -41.1305165,
    "lon": 174.8806006
  },
  {
    "type": "node",
    "id": 1010238275,
    "tags": {
      "bus": "yes",
      "highway": "bus_stop",
      "name": "Maungaraki Road at Otamarau Grove (near 308)",
      "network": "Metlink",
      "network:wikidata": "Q7258026",
      "public_transport": "platform",
      "ref": "8061"
    },
    "region_key": "NZ_WELLINGTON",
    "region_name": "Wellington",
    "region_center": {
      "lat": -41.2865,
      "lng": 174.7762
    },
    "lat": -41.2039294,
    "lon": 174.874796
  },
  {
    "type": "node",
    "id": 1010238281,
    "tags": {
      "bench": "no",
      "bin": "no",
      "bus": "yes",
      "highway": "bus_stop",
      "lit": "yes",
      "name": "Rintoul Street (near 191)",
      "network": "Metlink",
      "network:wikidata": "Q7258026",
      "public_transport": "platform",
      "ref": "6123",
      "shelter": "no",
      "tactile_paving": "no"
    },
    "region_key": "NZ_WELLINGTON",
    "region_name": "Wellington",
    "region_center": {
      "lat": -41.2865,
      "lng": 174.7762
    },
    "lat": -41.3193819,
    "lon": 174.7779856
  },
  {
    "type": "node",
    "id": 1010238285,
    "tags": {
      "bench": "yes",
      "bin": "yes",
      "bus": "yes",
      "highway": "bus_stop",
      "lit": "no",
      "name": "Karori Road opposite St Teresa's School",
      "network": "Metlink",
      "network:wikidata": "Q7258026",
      "public_transport": "platform",
      "ref": "4328",
      "shelter": "yes",
      "tactile_paving": "no"
    },
    "region_key": "NZ_WELLINGTON",
    "region_name": "Wellington",
    "region_center": {
      "lat": -41.2865,
      "lng": 174.7762
    },
    "lat": -41.2853791,
    "lon": 174.7349953
  },
  {
    "type": "node",
    "id": 1010238287,
    "tags": {
      "bench": "yes",
      "bus": "yes",
      "departures_board": "timetable",
      "highway": "bus_stop",
      "name": "Whitby - The Crowsnest",
      "network": "Metlink",
      "network:wikidata": "Q7258026",
      "network:wikipedia": "en:Public transport in the Wellington Region",
      "pole": "yes",
      "public_transport": "platform",
      "ref": "2548",
      "shelter": "no"
    },
    "region_key": "NZ_WELLINGTON",
    "region_name": "Wellington",
    "region_center": {
      "lat": -41.2865,
      "lng": 174.7762
    },
    "lat": -41.1066488,
    "lon": 174.8945202
  },
  {
    "type": "node",
    "id": 1010238288,
    "tags": {
      "bench": "no",
      "bus": "yes",
      "highway": "bus_stop",
      "name": "PÅmare Station - Eastern Hutt Road",
      "network": "Metlink",
      "network:wikidata": "Q7258026",
      "public_transport": "platform",
      "ref": "9299",
      "shelter": "no"
    },
    "region_key": "NZ_WELLINGTON",
    "region_name": "Wellington",
    "region_center": {
      "lat": -41.2865,
      "lng": 174.7762
    },
    "lat": -41.1696473,
    "lon": 174.9697749
  },
  {
    "type": "node",
    "id": 1010238296,
    "tags": {
      "bus": "yes",
      "highway": "bus_stop",
      "name": "Ahuriri Street (near 41)",
      "network": "Metlink",
      "network:wikidata": "Q7258026",
      "public_transport": "platform",
      "ref": "6097"
    },
    "region_key": "NZ_WELLINGTON",
    "region_name": "Wellington",
    "region_center": {
      "lat": -41.2865,
      "lng": 174.7762
    },
    "lat": -41.3362651,
    "lon": 174.8174003
  },
  {
    "type": "node",
    "id": 1010238297,
    "tags": {
      "bench": "yes",
      "bin": "no",
      "bus": "yes",
      "highway": "bus_stop",
      "name": "Punjab Street at Waru Street (near 36)",
      "network": "Metlink",
      "network:wikidata": "Q7258026",
      "public_transport": "platform",
      "ref": "4413",
      "shelter": "yes"
    },
    "region_key": "NZ_WELLINGTON",
    "region_name": "Wellington",
    "region_center": {
      "lat": -41.2865,
      "lng": 174.7762
    },
    "lat": -41.2537253,
    "lon": 174.7868493
  },
  {
    "type": "node",
    "id": 1010238299,
    "tags": {
      "bench": "no",
      "bus": "yes",
      "highway": "bus_stop",
      "name": "Highbury Road opposite Moana Road",
      "network": "Metlink",
      "network:wikidata": "Q7258026",
      "public_transport": "platform",
      "ref": "5945",
      "shelter": "no",
      "tactile_paving": "no"
    },
    "region_key": "NZ_WELLINGTON",
    "region_name": "Wellington",
    "region_center": {
      "lat": -41.2865,
      "lng": 174.7762
    },
    "lat": -41.2919475,
    "lon": 174.7571014
  },
  {
    "type": "node",
    "id": 1010238301,
    "tags": {
      "bus": "yes",
      "highway": "bus_stop",
      "name": "Fergusson Drive at Kashmir Avenue (near 1016)",
      "network": "Metlink",
      "network:wikidata": "Q7258026",
      "public_transport": "platform",
      "ref": "8584"
    },
    "region_key": "NZ_WELLINGTON",
    "region_name": "Wellington",
    "region_center": {
      "lat": -41.2865,
      "lng": 174.7762
    },
    "lat": -41.1210355,
    "lon": 175.0808809
  },
  {
    "type": "node",
    "id": 1010238302,
    "tags": {
      "bench": "yes",
      "bus": "yes",
      "highway": "bus_stop",
      "name": "High Street at Park Avenue",
      "network": "Metlink",
      "network:wikidata": "Q7258026",
      "public_transport": "platform",
      "ref": "8227",
      "shelter": "yes"
    },
    "region_key": "NZ_WELLINGTON",
    "region_name": "Wellington",
    "region_center": {
      "lat": -41.2865,
      "lng": 174.7762
    },
    "lat": -41.1982199,
    "lon": 174.9367639
  },
  {
    "type": "node",
    "id": 1010238309,
    "tags": {
      "bench": "yes",
      "bus": "yes",
      "highway": "bus_stop",
      "name": "Wellington Regional Aquatic Centre",
      "network": "Metlink",
      "network:wikidata": "Q7258026",
      "public_transport": "platform",
      "ref": "6222",
      "shelter": "yes",
      "tactile_paving": "no"
    },
    "region_key": "NZ_WELLINGTON",
    "region_name": "Wellington",
    "region_center": {
      "lat": -41.2865,
      "lng": 174.7762
    },
    "lat": -41.3150676,
    "lon": 174.7931576
  },
  {
    "type": "node",
    "id": 1010238311,
    "tags": {
      "bus": "yes",
      "highway": "bus_stop",
      "note": "Broderick Road (Hail and Ride)",
      "public_transport": "platform"
    },
    "region_key": "NZ_WELLINGTON",
    "region_name": "Wellington",
    "region_center": {
      "lat": -41.2865,
      "lng": 174.7762
    },
    "lat": -41.2242668,
    "lon": 174.8008927
  },
  {
    "type": "node",
    "id": 1010238314,
    "tags": {
      "bus": "yes",
      "highway": "bus_stop",
      "name": "Karori Road at Standen Street",
      "network": "Metlink",
      "network:wikidata": "Q7258026",
      "public_transport": "platform",
      "ref": "4323"
    },
    "region_key": "NZ_WELLINGTON",
    "region_name": "Wellington",
    "region_center": {
      "lat": -41.2865,
      "lng": 174.7762
    },
    "lat": -41.2812977,
    "lon": 174.7503269
  },
  {
    "type": "node",
    "id": 1010238316,
    "tags": {
      "access": "no",
      "bus": "yes",
      "highway": "bus_stop",
      "name": "Akatarawa Road (near 201)",
      "network": "Metlink",
      "network:wikidata": "Q7258026",
      "public_transport": "platform",
      "ref": "9695",
      "school_bus": "designated"
    },
    "region_key": "NZ_WELLINGTON",
    "region_name": "Wellington",
    "region_center": {
      "lat": -41.2865,
      "lng": 174.7762
    },
    "lat": -41.0893758,
    "lon": 175.0982156
  },
  {
    "type": "node",
    "id": 1010238317,
    "tags": {
      "bench": "no",
      "bin": "no",
      "bus": "yes",
      "highway": "bus_stop",
      "lit": "no",
      "name": "Knights Road opposite Chilton St James School",
      "network": "Metlink",
      "network:wikidata": "Q7258026",
      "public_transport": "platform",
      "ref": "8163",
      "shelter": "no",
      "tactile_paving": "no"
    },
    "region_key": "NZ_WELLINGTON",
    "region_name": "Wellington",
    "region_center": {
      "lat": -41.2865,
      "lng": 174.7762
    },
    "lat": -41.2120888,
    "lon": 174.912165
  },
  {
    "type": "node",
    "id": 1010238323,
    "tags": {
      "bench": "no",
      "bin": "yes",
      "bus": "yes",
      "highway": "bus_stop",
      "lit": "no",
      "name": "The Parade (near 21)",
      "network": "Metlink",
      "network:wikidata": "Q7258026",
      "public_transport": "platform",
      "ref": "6129",
      "shelter": "no",
      "tactile_paving": "yes"
    },
    "region_key": "NZ_WELLINGTON",
    "region_name": "Wellington",
    "region_center": {
      "lat": -41.2865,
      "lng": 174.7762
    },
    "lat": -41.3295055,
    "lon": 174.7740084
  },
  {
    "type": "node",
    "id": 1010238325,
    "tags": {
      "bench": "yes",
      "bin": "no",
      "bus": "yes",
      "highway": "bus_stop",
      "name": "Clutha Avenue at Nicholson Road (near 3)",
      "network": "Metlink",
      "network:wikidata": "Q7258026",
      "public_transport": "platform",
      "ref": "4418",
      "shelter": "yes"
    },
    "region_key": "NZ_WELLINGTON",
    "region_name": "Wellington",
    "region_center": {
      "lat": -41.2865,
      "lng": 174.7762
    },
    "lat": -41.2480729,
    "lon": 174.7894137
  },
  {
    "type": "node",
    "id": 1010238326,
    "tags": {
      "bus": "yes",
      "highway": "bus_stop",
      "name": "Woodhouse Avenue at Parklands Drive",
      "network": "Metlink",
      "network:wikidata": "Q7258026",
      "public_transport": "platform",
      "ref": "4363"
    },
    "region_key": "NZ_WELLINGTON",
    "region_name": "Wellington",
    "region_center": {
      "lat": -41.2865,
      "lng": 174.7762
    },
    "lat": -41.291956,
    "lon": 174.724952
  },
  {
    "type": "node",
    "id": 1010238327,
    "tags": {
      "access": "no",
      "bus": "yes",
      "highway": "bus_stop",
      "name": "Belmont Flat - Owen Street North",
      "network": "Metlink",
      "network:wikidata": "Q7258026",
      "public_transport": "platform",
      "ref": "8050",
      "school_bus": "designated"
    },
    "region_key": "NZ_WELLINGTON",
    "region_name": "Wellington",
    "region_center": {
      "lat": -41.2865,
      "lng": 174.7762
    },
    "lat": -41.1830969,
    "lon": 174.941564
  },
  {
    "type": "node",
    "id": 1010238329,
    "tags": {
      "bench": "no",
      "bin": "no",
      "bus": "yes",
      "highway": "bus_stop",
      "lit": "no",
      "name": "Kupe Street at Hamilton Road",
      "network": "Metlink",
      "network:wikidata": "Q7258026",
      "public_transport": "platform",
      "ref": "6220",
      "route_ref": "6220",
      "shelter": "no",
      "tactile_paving": "no"
    },
    "region_key": "NZ_WELLINGTON",
    "region_name": "Wellington",
    "region_center": {
      "lat": -41.2865,
      "lng": 174.7762
    },
    "lat": -41.3102718,
    "lon": 174.7929016
  },
  {
    "type": "node",
    "id": 1010238337,
    "tags": {
      "bus": "yes",
      "highway": "bus_stop",
      "name": "Cortina Avenue at Safari Crescent",
      "network": "Metlink",
      "network:wikidata": "Q7258026",
      "public_transport": "platform",
      "ref": "3062"
    },